OSHPD_ID,PERM_ID,FACILITY_NAME,LICENSE_NUM,FACILITY_LEVEL_DESC,DBA_ADDRESS1,DBA_CITY,DBA_ZIP_CODE,COUNTY_CODE,COUNTY_NAME,ER_SERVICE_LEVEL_DESC,TOTAL_NUMBER_BEDS,FACILITY_STATUS_DESC,FACILITY_STATUS_DATE,LICENSE_TYPE_DESC,LICENSE_CATEGORY_DESC,LATITUDE,LONGITUDE
106010042,10041,JOHN GEORGE PSYCHIATRIC HOSPITAL,140000046,General Acute Care Hospital,2060 FAIRMONT DRIVE,SAN LEANDRO,94578,01,Alameda,None,80,Open,2022-11-01,Hospital,General Acute Care Hospital,37.71055270,-122.12025630
106010735,11210,ALAMEDA HOSPITAL,140000002,General Acute Care Hospital,2070 CLINTON AVE,ALAMEDA,94501,01,Alameda,Emergency - Basic,101,Open,1946-01-01,Hospital,General Acute Care Hospital,37.76267980,-122.25410620
106010739,11214,ALTA BATES SUMMIT MEDICAL CENTER-ALTA BATES CAMPUS,140000004,General Acute Care Hospital,2450 ASHBY AVENUE,BERKELEY,94705,01,Alameda,Emergency - Basic,339,Open,1946-01-02,Hospital,General Acute Care Hospital,37.85562790,-122.25750140
106010776,11242,UCSF BENIOFF CHILDREN'S HOSPITAL OAKLAND,140000015,General Acute Care Hospital,747 52ND STREET,OAKLAND,94609,01,Alameda,Emergency - Basic,163,Open,1946-01-01,Hospital,General Acute Care Hospital,37.83693790,-122.26723060
106010811,11268,FAIRMONT HOSPITAL,140000046,General Acute Care Hospital,15400 FOOTHILL BOULEVARD,SAN LEANDRO,94578,01,Alameda,None,109,Open,1953-07-01,Hospital,General Acute Care Hospital,37.70816790,-122.11982280
106010844,11285,ALTA BATES SUMMIT MEDICAL CENTER-HERRICK CAMPUS,140000004,General Acute Care Hospital,2001 DWIGHT WAY,BERKELEY,94704,01,Alameda,None,64,Open,1946-01-01,Hospital,General Acute Care Hospital,37.86407240,-122.26871190
106010846,11288,HIGHLAND HOSPITAL,140000046,General Acute Care Hospital,1411 EAST 31ST STREET,OAKLAND,94602,01,Alameda,Emergency - Basic,169,Open,1953-07-01,Hospital,General Acute Care Hospital,37.79905960,-122.23250630
106010887,11321,KINDRED HOSPITAL - SAN FRANCISCO BAY AREA,140000066,General Acute Care Hospital,2800 BENEDICT DRIVE,SAN LEANDRO,94577,01,Alameda,None,99,Open,1962-11-13,Hospital,General Acute Care Hospital,37.71605780,-122.13047090
106010937,11322,ALTA BATES SUMMIT MEDICAL CENTER,140000284,General Acute Care Hospital,350 HAWTHORNE AVENUE,OAKLAND,94609,01,Alameda,Emergency - Basic,309,Open,1946-01-01,Hospital,General Acute Care Hospital,37.82117500,-122.26304000
106010967,11344,ST. ROSE HOSPITAL,140000107,General Acute Care Hospital,27200 CALAROGA AVENUE,HAYWARD,94545,01,Alameda,Emergency - Basic,155,Open,1962-10-10,Hospital,General Acute Care Hospital,37.63307250,-122.08850760
106010983,11363,STANFORD HEALTH CARE TRI-VALLEY,140000114,General Acute Care Hospital,1111 E. STANLEY BOULEVARD,LIVERMORE,94550,01,Alameda,None,75,Open,1969-10-19,Hospital,General Acute Care Hospital,37.67735300,-121.78195860
106010987,11366,WASHINGTON HOSPITAL - FREMONT,140000116,General Acute Care Hospital,2000 MOWRY AVENUE,FREMONT,94538,01,Alameda,Emergency - Basic,415,Open,1958-11-19,Hospital,General Acute Care Hospital,37.55727360,-121.97795350
106013619,11256,SAN LEANDRO HOSPITAL,140000046,General Acute Care Hospital,13855 EAST 14TH STREET,SAN LEANDRO,94578,01,Alameda,Emergency - Basic,91,Open,2019-08-19,Hospital,General Acute Care Hospital,37.71226600,-122.14355780
106013626,11338,ALTA BATES SUMMIT MEDICAL CENTER - SUMMIT CAMPUS,140000284,General Acute Care Hospital,3100 SUMMIT STREET,OAKLAND,94609,01,Alameda,None,,Open,1946-01-01,Hospital,General Acute Care Hospital,37.82015070,-122.26394660
106013687,,MPI CHEMICAL DEPENDENCY RECOVERY HOSPITAL,140000232,Chemical Dep. Recovery Hospital,3012 SUMMIT STREET,OAKLAND,94609,01,Alameda,Not Applicable,24,Open,1983-10-12,Hospital,Chemical Dep. Recovery Hospital,37.81948410,-122.26416520
106014034,16227,FREMONT HOSPITAL,140000347,Acute Psychiatric Hospital,39001 SUNDALE DRIVE,FREMONT,94538,01,Alameda,Not Applicable,148,Open,1990-02-16,Hospital,Acute Psychiatric Hospital,37.54661890,-121.97966200
106014050,16632,STANFORD HEALTH CARE TRI-VALLEY,140000114,General Acute Care Hospital,5555 WEST LAS POSITAS BLVD.,PLEASANTON,94588,01,Alameda,Emergency - Basic,167,Open,1991-12-09,Hospital,General Acute Care Hospital,37.69339460,-121.88034170
106014132,14509,KAISER FOUNDATION HOSPITAL - FREMONT,140000053,General Acute Care Hospital,39400 PASEO PADRE PARKWAY,FREMONT,94538,01,Alameda,Emergency - Basic,100,Open,1996-12-01,Hospital,General Acute Care Hospital,37.55216170,-121.97548910
106014207,,TELECARE HERITAGE PSYCHIATRIC HEALTH FACILITY,M02016036,Psychiatric Health Facility,2633 EAST 27TH STREET,OAKLAND,94601,01,Alameda,Not Applicable,26,Open,2005-08-16,Hospital,Psychiatric Health Facility,37.79057590,-122.22208990
106014226,,TELECARE WILLOW ROCK CENTER,M02016039,Psychiatric Health Facility,2050 FAIRMONT DRIVE,SAN LEANDRO,94578,01,Alameda,Not Applicable,16,Open,2007-07-02,Hospital,Psychiatric Health Facility,37.70931900,-122.11849170
106014233,18180,EDEN MEDICAL CENTER,140000030,General Acute Care Hospital,20103 LAKE CHABOT RD,CASTRO VALLEY,94546,01,Alameda,Emergency - Basic,130,Open,2012-11-01,Hospital,General Acute Care Hospital,37.69825720,-122.09014550
106014326,18206,KAISER FOUNDATION HOSPITAL - OAKLAND/RICHMOND,140000052,General Acute Care Hospital,275 W. MACARTHUR BLVD.,OAKLAND,94611,01,Alameda,Emergency - Basic,315,Open,2014-07-01,Hospital,General Acute Care Hospital,37.82374320,-122.25823700
106014337,18186,KAISER FOUNDATION HOSPITAL - SAN LEANDRO,550002678,General Acute Care Hospital,2500 MERCED STREET,SAN LEANDRO,94577,01,Alameda,Emergency - Basic,216,Open,2014-06-03,Hospital,General Acute Care Hospital,37.70684400,-122.16427170
106034002,17490,SUTTER AMADOR HOSPITAL,030000008,General Acute Care Hospital,200 MISSION BLVD,JACKSON,95642,03,Amador,Emergency - Basic,52,Open,2000-04-10,Hospital,General Acute Care Hospital,38.35048260,-120.76446500
106040802,10006,ORCHARD HOSPITAL,230000007,General Acute Care Hospital,240 SPRUCE STREET,GRIDLEY,95948,04,Butte,Emergency - Standby,24,Open,1949-05-24,Hospital,General Acute Care Hospital,39.36755410,-121.68946930
106040937,10019,OROVILLE HOSPITAL,230000022,General Acute Care Hospital,2767 OLIVE HIGHWAY,OROVILLE,95966,04,Butte,Emergency - Basic,133,Open,1962-01-01,Hospital,General Acute Care Hospital,39.50616930,-121.54119120
106040962,10013,ENLOE HEALTH,230000027,General Acute Care Hospital,1531 ESPLANADE,CHICO,95926,04,Butte,Emergency - Basic,268,Open,1946-03-29,Hospital,General Acute Care Hospital,39.74258670,-121.84972700
106044006,,BUTTE COUNTY MENTAL HEALTH SERVICES,M01016001,Psychiatric Health Facility,592 RIO LINDO AVENUE,CHICO,95926,04,Butte,Not Applicable,16,Open,1988-01-29,Hospital,Psychiatric Health Facility,39.75455520,-121.84749280
106044011,16464,ENLOE REHABILITATION CENTER,230000027,General Acute Care Hospital,340 WEST EAST AVENUE,CHICO,95926,04,Butte,None,40,Open,1991-05-14,Hospital,General Acute Care Hospital,39.75415870,-121.86755220
106050932,10029,MARK TWAIN MEDICAL CENTER,030000058,General Acute Care Hospital,768 MOUNTAIN RANCH ROAD,SAN ANDREAS,95249,05,Calaveras,Emergency - Basic,25,Open,1951-08-21,Hospital,General Acute Care Hospital,38.19068960,-120.67019030
106060870,10032,COLUSA MEDICAL CENTER,230000149,General Acute Care Hospital,199 E WEBSTER STREET,COLUSA,95932,06,Colusa,Emergency - Standby,48,Open,1953-07-01,Hospital,General Acute Care Hospital,39.20636820,-122.00171680
106070924,10049,CONTRA COSTA REGIONAL MEDICAL CENTER,140000090,General Acute Care Hospital,2500 ALHAMBRA AVENUE,MARTINEZ,94553,07,Contra Costa,Emergency - Basic,167,Open,1953-07-02,Hospital,General Acute Care Hospital,38.00608920,-122.13277780
106070934,10052,SUTTER DELTA MEDICAL CENTER,140000258,General Acute Care Hospital,3901 LONE TREE WAY,ANTIOCH,94509,07,Contra Costa,Emergency - Basic,141,Open,1967-02-02,Hospital,General Acute Care Hospital,37.98275930,-121.80296560
106070988,10081,JOHN MUIR MEDICAL CENTER-WALNUT CREEK CAMPUS,140000265,General Acute Care Hospital,1601 YGNACIO VALLEY ROAD,WALNUT CREEK,94598,07,Contra Costa,Emergency - Basic,554,Open,1965-06-15,Hospital,General Acute Care Hospital,37.91287690,-122.04094980
106070990,10072,KAISER FOUNDATION HOSPITAL - WALNUT CREEK,140000290,General Acute Care Hospital,1425 SOUTH MAIN STREET,WALNUT CREEK,94596,07,Contra Costa,Emergency - Basic,249,Open,1953-09-11,Hospital,General Acute Care Hospital,37.89150650,-122.05801370
106071018,10048,JOHN MUIR MEDICAL CENTER-CONCORD CAMPUS,140000128,General Acute Care Hospital,2540 EAST STREET,CONCORD,94520,07,Contra Costa,Emergency - Basic,276,Open,1946-01-01,Hospital,General Acute Care Hospital,37.98517260,-122.03366320
106074011,16166,SAN RAMON REGIONAL MEDICAL CENTER SOUTH BUILDING,140000345,General Acute Care Hospital,7777 NORRIS CANYON ROAD,SAN RAMON,94583,07,Contra Costa,None,,Open,2008-06-01,Hospital,General Acute Care Hospital,37.77464950,-121.95717620
106074017,16228,SAN RAMON REGIONAL MEDICAL CENTER,140000345,General Acute Care Hospital,6001 NORRIS CANYON ROAD,SAN RAMON,94583,07,Contra Costa,Emergency - Basic,123,Open,1990-02-12,Hospital,General Acute Care Hospital,37.77522510,-121.95817600
106074039,16891,JOHN MUIR BEHAVIORAL HEALTH CENTER,140000418,Acute Psychiatric Hospital,2740 GRANT STREET,CONCORD,94520,07,Contra Costa,Not Applicable,73,Open,1993-03-10,Hospital,Acute Psychiatric Hospital,37.98582970,-122.03673150
106074093,17749,KAISER FOUNDATION HOSPITAL - RICHMOND CAMPUS,140000052,General Acute Care Hospital,901 NEVIN AVE,RICHMOND,94801,07,Contra Costa,Emergency - Basic,50,Open,1995-09-07,Hospital,General Acute Care Hospital,37.93755730,-122.36110490
106074097,18153,KAISER FOUNDATION HOSPITAL - ANTIOCH,550000614,General Acute Care Hospital,4501 SAND CREEK ROAD,ANTIOCH,94531,07,Contra Costa,Emergency - Basic,150,Open,2007-11-07,Hospital,General Acute Care Hospital,37.95084180,-121.77492860
106084001,12784,SUTTER COAST HOSPITAL,110000067,General Acute Care Hospital,800 EAST WASHINGTON BOULEVARD,CRESCENT CITY,95531,08,Del Norte,Emergency - Basic,49,Open,1946-01-01,Hospital,General Acute Care Hospital,41.77365880,-124.19424690
106090793,10109,BARTON MEMORIAL HOSPITAL,030000013,General Acute Care Hospital,2170 SOUTH AVENUE,SOUTH LAKE TAHOE,96150,09,El Dorado,Emergency - Basic,111,Open,1963-11-21,Hospital,General Acute Care Hospital,38.91156330,-119.99654470
106090933,10112,MARSHALL MEDICAL CENTER,030000059,General Acute Care Hospital,1100 MARSHALL WAY,PLACERVILLE,95667,09,El Dorado,Emergency - Basic,111,Open,1959-05-22,Hospital,General Acute Care Hospital,38.72467000,-120.79165010
106094002,,TELECARE EL DORADO COUNTY P.H.F.,M20016057,Psychiatric Health Facility,935-B SPRING STREET,PLACERVILLE,95667,09,El Dorado,Not Applicable,16,Open,1988-01-29,Hospital,Psychiatric Health Facility,38.73333540,-120.80243970
106100005,16116,CLOVIS COMMUNITY MEDICAL CENTER,040000004,General Acute Care Hospital,2755 HERNDON AVENUE,CLOVIS,93611,10,Fresno,Emergency - Basic,352,Open,1988-12-15,Hospital,General Acute Care Hospital,36.83884690,-119.66118270
106100697,10122,COALINGA REGIONAL MEDICAL CENTER,040000085,General Acute Care Hospital,1191 PHELPS AVENUE,COALINGA,93210,10,Fresno,Emergency - Standby,75,Open,2020-12-02,Hospital,General Acute Care Hospital,36.15196750,-120.34099550
106100717,10127,COMMUNITY REGIONAL MEDICAL CENTER-FRESNO,040000096,General Acute Care Hospital,2823 FRESNO STREET,FRESNO,93721,10,Fresno,Emergency - Comprehensive,685,Open,1946-01-01,Hospital,General Acute Care Hospital,36.74263020,-119.78474790
106100793,10160,ADVENTIST HEALTH SELMA,550001439,General Acute Care Hospital,1141 ROSE AVENUE,SELMA,93662,10,Fresno,Emergency - Standby,62,Open,2005-10-29,Hospital,General Acute Care Hospital,36.56733210,-119.59797900
106100797,10162,ADVENTIST HEALTH REEDLEY,040000149,General Acute Care Hospital,372 WEST CYPRESS AVENUE,REEDLEY,93654,10,Fresno,Emergency - Standby,49,Open,1965-04-14,Hospital,General Acute Care Hospital,36.60817920,-119.45311640
106100899,10155,ST. AGNES MEDICAL CENTER,040000173,General Acute Care Hospital,1303 EAST HERNDON AVENUE,FRESNO,93720,10,Fresno,Emergency - Basic,436,Open,1975-03-22,Hospital,General Acute Care Hospital,36.83423770,-119.76377600
106104008,15868,COMMUNITY BEHAVIORAL HEALTH CENTER,040000096,General Acute Care Hospital,7171 NORTH CEDAR AVENUE,FRESNO,93720,10,Fresno,None,73,Open,1987-10-01,Hospital,General Acute Care Hospital,36.84079990,-119.75684420
106104023,16404,SAN JOAQUIN VALLEY REHABILITATION HOSPITAL,040000280,General Acute Care Hospital,7173 N. SHARON AVENUE,FRESNO,93720,10,Fresno,None,62,Open,1991-01-23,Hospital,General Acute Care Hospital,36.83989070,-119.76065460
106104047,16878,FRESNO SURGICAL HOSPITAL,040000332,General Acute Care Hospital,6125 NORTH FRESNO STREET,FRESNO,93710,10,Fresno,None,27,Open,1993-02-23,Hospital,General Acute Care Hospital,36.82484690,-119.78192980
106104062,13018,KAISER FOUNDATION HOSPITAL - FRESNO,040000384,General Acute Care Hospital,7300 NORTH FRESNO STREET,FRESNO,93720,10,Fresno,Emergency - Basic,169,Open,1995-02-23,Hospital,General Acute Care Hospital,36.84243310,-119.78046700
106104089,,EXODUS PSYCHIATRIC HEALTH FACILITY FRESNO,M20016059,Psychiatric Health Facility,4411 E. KINGS CANYON ROAD,FRESNO,93702,10,Fresno,Not Applicable,16,Open,2016-01-01,Hospital,Psychiatric Health Facility,36.73700790,-119.75197970
106105029,17938,FRESNO HEART AND SURGICAL HOSPITAL,040000096,General Acute Care Hospital,15 E. AUDUBON DR.,FRESNO,93720,10,Fresno,None,57,Open,2015-09-01,Hospital,General Acute Care Hospital,36.86003670,-119.78863410
106105051,,DEPARTMENT OF STATE HOSPITALS - COALINGA,550000061,Acute Psychiatric Hospital,24511 WEST JAYNE AVENUE,COALINGA,93210,10,Fresno,Not Applicable,"1,500",Open,2005-08-25,Hospital,Acute Psychiatric Hospital,36.13066700,-120.23887710
106105125,,CENTRAL STAR PSYCHIATRIC HEALTH FACILITY,M20016058,Psychiatric Health Facility,4411 E. KINGS CANYON ROAD,FRESNO,93702,10,Fresno,Not Applicable,16,Open,2015-04-17,Hospital,Psychiatric Health Facility,36.73700790,-119.75197970
106110889,10175,GLENN MEDICAL CENTER,230000018,General Acute Care Hospital,1133 WEST SYCAMORE STREET,WILLOWS,95988,11,Glenn,Emergency - Standby,47,Open,1953-07-01,Hospital,General Acute Care Hospital,39.52136020,-122.20843620
106121002,13087,MAD RIVER COMMUNITY HOSPITAL,110000031,General Acute Care Hospital,3800 JANES ROAD,ARCATA,95521,12,Humboldt,Emergency - Basic,78,Open,1972-10-26,Hospital,General Acute Care Hospital,40.89649230,-124.08992650
106121031,10186,JEROLD PHELPS COMMUNITY HOSPITAL,110000052,General Acute Care Hospital,733 CEDAR STREET,GARBERVILLE,95542,12,Humboldt,Emergency - Standby,17,Open,1963-08-20,Hospital,General Acute Care Hospital,40.10164910,-123.79226170
106121051,10183,PROVIDENCE REDWOOD MEMORIAL HOSPITAL,110000173,General Acute Care Hospital,3300 RENNER DRIVE,FORTUNA,95540,12,Humboldt,Emergency - Basic,35,Open,1957-03-19,Hospital,General Acute Care Hospital,40.58233660,-124.13637490
106121080,10184,PROVIDENCE ST. JOSEPH HOSPITAL,110000075,General Acute Care Hospital,2700 DOLBEER STREET,EUREKA,95501,12,Humboldt,Emergency - Basic,138,Open,1954-07-26,Hospital,General Acute Care Hospital,40.78438900,-124.14163400
106124004,,SEMPERVIRENS P.H.F.,M10016003,Psychiatric Health Facility,720 WOOD STREET,EUREKA,95501,12,Humboldt,Not Applicable,16,Open,1988-01-29,Hospital,Psychiatric Health Facility,40.78097690,-124.16104670
106130699,10190,EL CENTRO REGIONAL MEDICAL CENTER,090000004,General Acute Care Hospital,1415 ROSS AVENUE,EL CENTRO,92243,13,Imperial,Emergency - Basic,161,Open,1967-01-21,Hospital,General Acute Care Hospital,32.78110320,-115.56766890
106130760,10192,PIONEERS MEMORIAL HOSPITAL,090000087,General Acute Care Hospital,207 WEST LEGION ROAD,BRAWLEY,92227,13,Imperial,Emergency - Basic,107,Open,1950-11-06,Hospital,General Acute Care Hospital,32.95894900,-115.55370060
106141273,10200,NORTHERN INYO HOSPITAL,240000179,General Acute Care Hospital,150 PIONEER LANE,BISHOP,93514,14,Inyo,Emergency - Basic,25,Open,1948-05-14,Hospital,General Acute Care Hospital,37.36197090,-118.40618530
106141338,10202,SOUTHERN INYO HOSPITAL,240000205,General Acute Care Hospital,501 EAST LOCUST STREET,LONE PINE,93545,14,Inyo,Emergency - Standby,37,Open,1952-03-31,Hospital,General Acute Care Hospital,36.60905390,-118.05785290
106150020,,KERN PSYCHIATRIC HEALTH FACILITY,M20016067,Psychiatric Health Facility,718 WORKMAN STREET,BAKERSFIELD,93307,15,Kern,Not Applicable,16,Open,2025-02-06,Hospital,Psychiatric Health Facility,35.34801650,-118.95376340
106150021,,KERN YOUTH PSYCHIATRIC HEALTH FACILITY,M20016068,Acute Psychiatric Hospital,702 WORKMAN STREET,BAKERSFIELD,93307,15,Kern,Not Applicable,16,Open,2025-02-06,Hospital,Acute Psychiatric Hospital,35.34805600,-118.95376500
106150706,12765,ADVENTIST HEALTH DELANO,120000180,General Acute Care Hospital,1401 GARCES HIGHWAY,DELANO,93215,15,Kern,Emergency - Basic,156,Open,1974-01-01,Hospital,General Acute Care Hospital,35.76228540,-119.23925190
106150722,10207,BAKERSFIELD MEMORIAL HOSPITAL,120000181,General Acute Care Hospital,420 34TH STREET,BAKERSFIELD,93301,15,Kern,Emergency - Basic,385,Open,1956-09-27,Hospital,General Acute Care Hospital,35.39282950,-119.00615410
106150736,10208,KERN MEDICAL CENTER,120000182,General Acute Care Hospital,1700 MOUNT VERNON AVENUE,BAKERSFIELD,93306,15,Kern,Emergency - Basic,222,Open,1953-07-01,Hospital,General Acute Care Hospital,35.38286990,-118.97025700
106150737,10210,KERN VALLEY HEALTHCARE DISTRICT,120000183,General Acute Care Hospital,6412 LAUREL AVENUE,LAKE ISABELLA,93240,15,Kern,Emergency - Standby,101,Open,1968-06-17,Hospital,General Acute Care Hospital,35.63528840,-118.40646350
106150761,10214,MERCY HOSPITAL - BAKERSFIELD,120000184,General Acute Care Hospital,2215 TRUXTUN AVENUE,BAKERSFIELD,93301,15,Kern,Emergency - Basic,144,Open,1947-01-01,Hospital,General Acute Care Hospital,35.37280140,-119.02676240
106150775,10219,GOOD SAMARITAN HOSPITAL-BAKERSFIELD,120000146,General Acute Care Hospital,901 OLIVE DRIVE,BAKERSFIELD,93308,15,Kern,None,64,Open,1960-05-10,Hospital,General Acute Care Hospital,35.41169600,-119.03962830
106150782,10220,RIDGECREST REGIONAL HOSPITAL,120000186,General Acute Care Hospital,1081 NORTH CHINA LAKE BLVD.,RIDGECREST,93555,15,Kern,Emergency - Basic,98,Open,1946-09-30,Hospital,General Acute Care Hospital,35.64074450,-117.67116850
106150788,12881,ADVENTIST HEALTH BAKERSFIELD,120000187,General Acute Care Hospital,2615 CHESTER AVENUE,BAKERSFIELD,93301,15,Kern,Emergency - Basic,253,Open,1973-05-01,Hospital,General Acute Care Hospital,35.38337440,-119.02065430
106150820,10820,CENTRAL CALIFORNIA REHABILITATION HOSPITAL,550007875,General Acute Care Hospital,4400 KIRKCALDY DRIVE,BAKERSFIELD,93306,15,Kern,None,50,Open,2022-03-10,Hospital,General Acute Care Hospital,35.39500810,-118.91896930
106154022,16245,ENCOMPASS HEALTH REHABILITATION HOSPITAL OF BAKERSFIELD,120000248,General Acute Care Hospital,5001 COMMERCE DRIVE,BAKERSFIELD,93309,15,Kern,None,86,Open,1990-05-01,Hospital,General Acute Care Hospital,35.36715210,-119.05745460
106154044,10211,"BAKERSFIELD BEHAVIORAL HEALTHCARE HOSPITAL, LLC",550003535,Acute Psychiatric Hospital,5201 WHITE LANE,BAKERSFIELD,93309,15,Kern,Not Applicable,90,Open,2016-06-01,Hospital,Acute Psychiatric Hospital,35.31645450,-119.06061200
106154101,17358,ADVENTIST HEALTH SPECIALTY BAKERSFIELD,120000187,General Acute Care Hospital,3001 SILLECT AVENUE,BAKERSFIELD,93308,15,Kern,Emergency - Basic,47,Open,2023-11-28,Hospital,General Acute Care Hospital,35.38470810,-119.03991710
106154108,17632,MERCY SOUTHWEST HOSPITAL,120000184,General Acute Care Hospital,400 OLD RIVER RD,BAKERSFIELD,93311,15,Kern,Emergency - Basic,85,Open,1992-07-15,Hospital,General Acute Care Hospital,35.35153930,-119.11243920
106154160,,CRESTWOOD PSYCHIATRIC HEALTH FACILITY BAKERSFIELD,M02016045,Psychiatric Health Facility,"6700 EUCALYPTUS DRIVE, STE C",BAKERSFIELD,93306,15,Kern,Not Applicable,16,Open,2010-11-15,Hospital,Psychiatric Health Facility,35.36578670,-118.92966470
106154168,18202,ADVENTIST HEALTH TEHACHAPI VALLEY,120000188,General Acute Care Hospital,1100 MAGELLAN DRIVE,TEHACHAPI,93561,15,Kern,Emergency - Basic,25,Open,2018-11-01,Hospital,General Acute Care Hospital,35.14769850,-118.45090070
106164029,18194,ADVENTIST HEALTH HANFORD,550001439,General Acute Care Hospital,115 MALL DRIVE,HANFORD,93230,16,Kings,Emergency - Basic,173,Open,2010-12-05,Hospital,General Acute Care Hospital,36.32321710,-119.66787700
106171049,10247,ADVENTIST HEALTH CLEARLAKE,110000174,General Acute Care Hospital,15630 18TH AVE,CLEARLAKE,95422,17,Lake,Emergency - Standby,32,Open,1968-04-18,Hospital,General Acute Care Hospital,38.93560640,-122.62023870
106171395,14345,SUTTER LAKESIDE HOSPITAL,110000094,General Acute Care Hospital,5176 HILL ROAD EAST,LAKEPORT,95453,17,Lake,Emergency - Basic,27,Open,1978-04-28,Hospital,General Acute Care Hospital,39.10473660,-122.90651980
106184008,17940,BANNER LASSEN MEDICAL CENTER,230000020,General Acute Care Hospital,1800 SPRING RIDGE DRIVE,SUSANVILLE,96130,18,Lassen,Emergency - Basic,25,Open,2003-04-23,Hospital,General Acute Care Hospital,40.43680490,-120.62803370
106190017,11386,ALHAMBRA HOSPITAL MEDICAL CENTER,930000005,General Acute Care Hospital,100 SOUTH RAYMOND AVENUE,ALHAMBRA,91801,19,Los Angeles,Emergency - Basic,144,Open,1946-01-01,Hospital,General Acute Care Hospital,34.09064290,-118.14376550
106190020,11388,BHC ALHAMBRA HOSPITAL,930000006,Acute Psychiatric Hospital,4619 ROSEMEAD BOULEVARD,ROSEMEAD,91770,19,Los Angeles,Not Applicable,97,Open,1946-01-01,Hospital,Acute Psychiatric Hospital,34.08872740,-118.07381330
106190021,,TELECARE MLK ADULT PSYCHIATRIC HEALTH FACILITY,M20016070,Psychiatric Health Facility,12021 SOUTH WILMINGTON AVENUE,LOS ANGELES,90059,19,Los Angeles,Not Applicable,16,Open,2025-07-08,Hospital,Psychiatric Health Facility,33.92337580,-118.24219830
106190034,11399,ANTELOPE VALLEY MEDICAL CENTER,930000008,General Acute Care Hospital,1600 WEST AVENUE J,LANCASTER,93534,19,Los Angeles,Emergency - Basic,420,Open,1955-09-27,Hospital,General Acute Care Hospital,34.68824820,-118.15915270
106190040,,BEST CARE UNLIMITED HOME HEALTH,550006489,Home Health Agency,13425 Ventura Blvd,Sherman Oaks,91423,19,Los Angeles,Not Applicable,,Open,2021-07-06,Home Health Agency/Hospice,Home Health Agency,34.14735000,-118.42578000
106190045,11410,CATALINA ISLAND MEDICAL CENTER,930000010,General Acute Care Hospital,100 FALLS CANYON ROAD,AVALON,90704,19,Los Angeles,Emergency - Standby,12,Open,1946-01-01,Hospital,General Acute Care Hospital,33.33918740,-118.33068290
106190049,11704,KINDRED HOSPITAL - BALDWIN PARK,930000390,General Acute Care Hospital,14148 FRANCISQUITO AVENUE,BALDWIN PARK,91706,19,Los Angeles,None,95,Open,2003-12-23,Hospital,General Acute Care Hospital,34.06305690,-117.96764250
106190050,,HENRY MAYO NEWHALL MEMORIAL HOSPITAL D/P APH,930000206,General Acute Care Hospital,25727 MCBEAN PARKWAY,VALENCIA,91355,19,Los Angeles,None,23,Open,2022-11-30,Hospital,General Acute Care Hospital,34.39885910,-118.55263370
106190052,11417,BARLOW RESPIRATORY HOSPITAL,930000011,General Acute Care Hospital,2000 STADIUM WAY,LOS ANGELES,90026,19,Los Angeles,None,105,Open,1946-01-01,Hospital,General Acute Care Hospital,34.07613380,-118.24812820
106190053,12012,ST. MARY MEDICAL CENTER - LONG BEACH,930000012,General Acute Care Hospital,1050 LINDEN AVENUE,LONG BEACH,90813,19,Los Angeles,Emergency - Basic,360,Open,1946-01-01,Hospital,General Acute Care Hospital,33.78055770,-118.18627250
106190066,11428,LOS ANGELES COMMUNITY HOSPITAL AT BELLFLOWER,930000039,General Acute Care Hospital,9542 ARTESIA BOULEVARD,BELLFLOWER,90706,19,Los Angeles,None,32,Open,2015-07-23,Hospital,General Acute Care Hospital,33.87431360,-118.12973190
106190081,11441,ADVENTIST HEALTH WHITE MEMORIAL MONTEBELLO,930000195,General Acute Care Hospital,309 WEST BEVERLY BOULEVARD,MONTEBELLO,90640,19,Los Angeles,Emergency - Basic,192,Open,2023-09-06,Hospital,General Acute Care Hospital,34.01556110,-118.10006020
106190110,11848,SOUTHERN CALIFORNIA HOSPITAL AT CULVER CITY,930000066,General Acute Care Hospital,3828 DELMAS TERRACE,CULVER CITY,90232,19,Los Angeles,Emergency - Basic,410,Open,2013-01-01,Hospital,General Acute Care Hospital,34.02320010,-118.39691280
106190125,11480,CALIFORNIA HOSPITAL MEDICAL CENTER - LOS ANGELES,930000024,General Acute Care Hospital,1401 SOUTH GRAND AVENUE,LOS ANGELES,90015,19,Los Angeles,Emergency - Basic,392,Open,1946-01-01,Hospital,General Acute Care Hospital,34.03739670,-118.26572710
106190137,11496,CASA COLINA HOSPITAL,930000026,General Acute Care Hospital,255 EAST BONITA AVENUE,POMONA,91767,19,Los Angeles,None,99,Open,1961-02-28,Hospital,General Acute Care Hospital,34.09692410,-117.74576920
106190148,11510,CENTINELA HOSPITAL MEDICAL CENTER,930000027,General Acute Care Hospital,555 EAST HARDY STREET,INGLEWOOD,90301,19,Los Angeles,Emergency - Basic,362,Open,1946-01-01,Hospital,General Acute Care Hospital,33.95041980,-118.34819870
106190150,17063,KEDREN COMMUNITY MENTAL HEALTH CENTER,930000028,Acute Psychiatric Hospital,4211 AVALON BOULEVARD,LOS ANGELES,90011,19,Los Angeles,Not Applicable,72,Open,1973-10-17,Hospital,Acute Psychiatric Hospital,34.00721840,-118.26555780
106190155,12874,"CALIFORNIA REHABILITATION INSTITUTE, LLC",930000029,General Acute Care Hospital,2070 CENTURY PARK EAST,LOS ANGELES,90067,19,Los Angeles,None,138,Open,2016-07-19,Hospital,General Acute Care Hospital,34.05911670,-118.41188330
106190159,,PACIFIC GARDENS MEDICAL CENTER,930000030,General Acute Care Hospital,21530 PIONEER BOULEVARD,HAWAIIAN GARDENS,90716,19,Los Angeles,Emergency - Basic,124,Suspense,2021-08-24,Hospital,General Acute Care Hospital,33.83357010,-118.08016960
106190163,11516,AURORA CHARTER OAK,930000031,Acute Psychiatric Hospital,1161 EAST COVINA BOULEVARD,COVINA,91724,19,Los Angeles,Not Applicable,134,Open,1946-01-01,Hospital,Acute Psychiatric Hospital,34.09981930,-117.86646690
106190170,11525,CHILDREN'S HOSPITAL OF LOS ANGELES,930000032,General Acute Care Hospital,4650 W. SUNSET BOULEVARD,LOS ANGELES,90027,19,Los Angeles,Emergency - Basic,438,Open,1946-01-01,Hospital,General Acute Care Hospital,34.09815470,-118.29077910
106190176,11527,CITY OF HOPE HELFORD CLINICAL RESEARCH HOSPITAL,930000033,General Acute Care Hospital,1500 DUARTE ROAD,DUARTE,91010,19,Los Angeles,None,217,Open,1946-03-08,Hospital,General Acute Care Hospital,34.12919380,-117.97281480
106190184,12575,COLLEGE HOSPITAL,930000036,Acute Psychiatric Hospital,10802 COLLEGE PLACE,CERRITOS,90703,19,Los Angeles,Not Applicable,187,Open,1974-04-14,Hospital,Acute Psychiatric Hospital,33.88440220,-118.10321510
106190196,11547,KINDRED HOSPITAL - SOUTH BAY,930000037,General Acute Care Hospital,1246 WEST 155TH STREET,GARDENA,90247,19,Los Angeles,None,54,Open,1957-07-17,Hospital,General Acute Care Hospital,33.88977850,-118.29728850
106190197,11549,COMMUNITY HOSPITAL OF HUNTINGTON PARK,930000038,General Acute Care Hospital,2623 EAST SLAUSON AVENUE,HUNTINGTON PARK,90255,19,Los Angeles,Emergency - Basic,81,Open,1957-12-31,Hospital,General Acute Care Hospital,33.98921610,-118.22454060
106190198,11545,LOS ANGELES COMMUNITY HOSPITAL,930000039,General Acute Care Hospital,4081 EAST OLYMPIC BOULEVARD,LOS ANGELES,90023,19,Los Angeles,Emergency - Standby,130,Open,1957-10-24,Hospital,General Acute Care Hospital,34.01934980,-118.18654670
106190200,11548,SAN GABRIEL VALLEY MEDICAL CENTER,930000041,General Acute Care Hospital,438 W. LAS TUNAS DRIVE,SAN GABRIEL,91776,19,Los Angeles,Emergency - Basic,261,Open,1960-08-17,Hospital,General Acute Care Hospital,34.10091700,-118.10559260
106190232,13141,DEL AMO BEHAVIORAL HEALTH SYSTEM,930000045,Acute Psychiatric Hospital,23700 CAMINO DEL SOL,TORRANCE,90505,19,Los Angeles,Not Applicable,166,Open,1972-10-25,Hospital,Acute Psychiatric Hospital,33.81018660,-118.34335030
106190240,12831,UCI HEALTH-LAKEWOOD,930000046,General Acute Care Hospital,3700 SOUTH STREET,LAKEWOOD,90712,19,Los Angeles,Emergency - Basic,172,Open,1972-05-17,Hospital,General Acute Care Hospital,33.85968830,-118.14829130
106190243,12235,PIH HEALTH DOWNEY HOSPITAL,930000048,General Acute Care Hospital,11500 BROOKSHIRE AVENUE,DOWNEY,90241,19,Los Angeles,Emergency - Basic,199,Open,1969-09-18,Hospital,General Acute Care Hospital,33.93415030,-118.13174340
106190256,11598,EAST LOS ANGELES DOCTORS HOSPITAL,930000049,General Acute Care Hospital,4060 WHITTIER BOULEVARD,LOS ANGELES,90023,19,Los Angeles,Emergency - Basic,127,Open,1949-08-15,Hospital,General Acute Care Hospital,34.02304790,-118.18439880
106190280,11621,ENCINO HOSPITAL MEDICAL CENTER,930000051,General Acute Care Hospital,16237 VENTURA BOULEVARD,ENCINO,91436,19,Los Angeles,Emergency - Basic,148,Open,1954-11-08,Hospital,General Acute Care Hospital,34.15742780,-118.48700170
106190298,13093,EMANATE HEALTH FOOTHILL PRESBYTERIAN HOSPITAL,930000052,General Acute Care Hospital,250 SOUTH GRAND AVENUE,GLENDORA,91741,19,Los Angeles,Emergency - Basic,105,Open,1973-03-26,Hospital,General Acute Care Hospital,34.13276540,-117.87134350
106190305,11414,KINDRED HOSPITAL - LOS ANGELES,930000053,General Acute Care Hospital,5525 WEST SLAUSON AVENUE,LOS ANGELES,90056,19,Los Angeles,None,81,Open,1958-04-28,Hospital,General Acute Care Hospital,33.99052250,-118.37890530
106190315,11658,GARFIELD MEDICAL CENTER,930000057,General Acute Care Hospital,525 NORTH GARFIELD AVENUE,MONTEREY PARK,91754,19,Los Angeles,Emergency - Basic,210,Open,1946-01-01,Hospital,General Acute Care Hospital,34.06808080,-118.12312280
106190317,11661,GATEWAYS HOSPITAL AND MENTAL HEALTH CENTER,930000058,Acute Psychiatric Hospital,1891 EFFIE STREET,LOS ANGELES,90026,19,Los Angeles,Not Applicable,55,Open,1974-07-02,Hospital,Acute Psychiatric Hospital,34.08490230,-118.25670520
106190323,11668,ADVENTIST HEALTH GLENDALE,930000059,General Acute Care Hospital,1509 WILSON TERRACE,GLENDALE,91206,19,Los Angeles,Emergency - Basic,515,Open,1946-01-01,Hospital,General Acute Care Hospital,34.15074430,-118.22913410
106190328,11672,GLENDORA HOSPITAL,930000060,Acute Psychiatric Hospital,150 W ROUTE 66,GLENDORA,91740,19,Los Angeles,Not Applicable,63,Open,1958-06-12,Hospital,Acute Psychiatric Hospital,34.12756020,-117.86511710
106190352,13224,GREATER EL MONTE COMMUNITY HOSPITAL,930000063,General Acute Care Hospital,1701 SANTA ANITA AVENUE,SOUTH EL MONTE,91733,19,Los Angeles,Emergency - Basic,115,Open,1974-07-01,Hospital,General Acute Care Hospital,34.04805160,-118.04340030
106190380,11718,SOUTHERN CALIFORNIA HOSPITAL AT HOLLYWOOD,930000066,General Acute Care Hospital,6245 DE LONGPRE AVENUE,HOLLYWOOD,90028,19,Los Angeles,None,100,Open,1963-02-08,Hospital,General Acute Care Hospital,34.09642540,-118.32523670
106190382,11722,HOLLYWOOD PRESBYTERIAN MEDICAL CENTER,930000067,General Acute Care Hospital,1300 NORTH VERMONT AVENUE,LOS ANGELES,90027,19,Los Angeles,Emergency - Basic,434,Open,1946-01-01,Hospital,General Acute Care Hospital,34.09576470,-118.28973120
106190385,11726,PROVIDENCE HOLY CROSS MEDICAL CENTER,930000404,General Acute Care Hospital,15031 RINALDI STREET,MISSION HILLS,91345,19,Los Angeles,Emergency - Basic,378,Open,1961-06-21,Hospital,General Acute Care Hospital,34.27978200,-118.45998060
106190392,11731,PIH HEALTH GOOD SAMARITAN HOSPITAL,930000071,General Acute Care Hospital,1225 WILSHIRE BOULEVARD,LOS ANGELES,90017,19,Los Angeles,Emergency - Basic,408,Open,1946-01-01,Hospital,General Acute Care Hospital,34.05458100,-118.26543010
106190400,11733,HUNTINGTON HOSPITAL,930000372,General Acute Care Hospital,100 W. CALIFORNIA BOULEVARD,PASADENA,91105,19,Los Angeles,Emergency - Basic,534,Open,1946-01-01,Hospital,General Acute Care Hospital,34.13431630,-118.15292140
106190410,11741,L.A. DOWNTOWN MEDICAL CENTER - INGLESIDE CAMPUS D/P APH,930000137,General Acute Care Hospital,7500 HELLMAN AVENUE,ROSEMEAD,91770,19,Los Angeles,None,118,Open,1996-08-13,Hospital,General Acute Care Hospital,34.06960140,-118.10580340
106190413,11748,EMANATE HEALTH INTER-COMMUNITY HOSPITAL,930000131,General Acute Care Hospital,210 W. SAN BERNARDINO ROAD,COVINA,91723,19,Los Angeles,Emergency - Basic,191,Open,1946-03-28,Hospital,General Acute Care Hospital,34.08823300,-117.89375230
106190422,12249,TORRANCE MEMORIAL MEDICAL CENTER,930000076,General Acute Care Hospital,3330 LOMITA BOULEVARD,TORRANCE,90505,19,Los Angeles,Emergency - Basic,588,Open,1971-03-29,Hospital,General Acute Care Hospital,33.81346940,-118.34418790
106190429,11760,KAISER FOUNDATION HOSPITAL - LOS ANGELES,930000077,General Acute Care Hospital,4867 SUNSET BOULEVARD,LOS ANGELES,90027,19,Los Angeles,Emergency - Basic,492,Open,1953-05-01,Hospital,General Acute Care Hospital,34.09893480,-118.29409150
106190431,11758,KAISER FOUNDATION HOSPITAL - SOUTH BAY,930000079,General Acute Care Hospital,25825 SOUTH VERMONT AVENUE,HARBOR CITY,90710,19,Los Angeles,Emergency - Basic,257,Open,1959-01-14,Hospital,General Acute Care Hospital,33.78993250,-118.29476450
106190432,11759,KAISER FOUNDATION HOSPITAL - PANORAMA CITY,930000080,General Acute Care Hospital,13652 CANTARA STREET,PANORAMA CITY,91402,19,Los Angeles,Emergency - Basic,218,Open,1963-06-21,Hospital,General Acute Care Hospital,34.21881900,-118.43003900
106190434,12875,KAISER FOUNDATION HOSPITAL - WEST LA,930000081,General Acute Care Hospital,6041 CADILLAC AVENUE,LOS ANGELES,90034,19,Los Angeles,Emergency - Basic,265,Open,1974-09-16,Hospital,General Acute Care Hospital,34.03860880,-118.37434520
106190449,11768,VISTA SPECIALTY HOSPITAL OF LA MIRADA,930000084,General Acute Care Hospital,14900 IMPERIAL HIGHWAY,LA MIRADA,90638,19,Los Angeles,None,118,Open,1961-07-27,Hospital,General Acute Care Hospital,33.91635100,-118.01350960
106190458,11776,KINDRED HOSPITAL - SAN GABRIEL VALLEY,060000407,General Acute Care Hospital,845 NORTH LARK ELLEN AVENUE,WEST COVINA,91791,19,Los Angeles,None,76,Open,2025-09-01,Hospital,General Acute Care Hospital,34.08706800,-117.91724600
106190462,11778,AURORA LAS ENCINAS HOSPITAL,930000087,Acute Psychiatric Hospital,2900 EAST DEL MAR BOULEVARD,PASADENA,91107,19,Los Angeles,Not Applicable,118,Open,1946-01-01,Hospital,Acute Psychiatric Hospital,34.14134250,-118.09144240
106190470,11787,PROVIDENCE LITTLE COMPANY OF MARY MEDICAL CENTER TORRANCE,930000089,General Acute Care Hospital,4101 TORRANCE BOULEVARD,TORRANCE,90503,19,Los Angeles,Emergency - Basic,327,Open,1959-12-21,Hospital,General Acute Care Hospital,33.83846780,-118.35724360
106190477,11795,COLLEGE MEDICAL CENTER SOUTH CAMPUS D/P APH,930000117,General Acute Care Hospital,1725 PACIFIC AVENUE,LONG BEACH,90813,19,Los Angeles,None,36,Open,2002-11-21,Hospital,General Acute Care Hospital,33.78837860,-118.19408710
106190500,12744,CEDARS-SINAI MARINA HOSPITAL,930000096,General Acute Care Hospital,4650 LINCOLN BOULEVARD,MARINA DEL REY,90292,19,Los Angeles,Emergency - Basic,103,Open,1970-04-17,Hospital,General Acute Care Hospital,33.98214490,-118.43922620
106190517,13085,PROVIDENCE CEDARS-SINAI TARZANA MEDICAL CENTER,930000097,General Acute Care Hospital,18321 CLARK STREET,TARZANA,91356,19,Los Angeles,Emergency - Basic,204,Open,1973-10-02,Hospital,General Acute Care Hospital,34.17095030,-118.53328750
106190521,11843,MEMORIAL HOSPITAL OF GARDENA,930000098,General Acute Care Hospital,1145 W. REDONDO BEACH BLVD.,GARDENA,90247,19,Los Angeles,Emergency - Basic,172,Open,1949-05-13,Hospital,General Acute Care Hospital,33.89299290,-118.29500490
106190522,11844,GLENDALE MEMORIAL HOSPITAL AND HEALTH CENTER,930000099,General Acute Care Hospital,1420 SOUTH CENTRAL AVENUE,GLENDALE,91204,19,Los Angeles,Emergency - Basic,334,Open,1946-01-01,Hospital,General Acute Care Hospital,34.12808620,-118.25695640
106190523,11845,COLLEGE MEDICAL CENTER HAWTHORNE CAMPUS,930000117,General Acute Care Hospital,13300 HAWTHORNE BOULEVARD,HAWTHORNE,90250,19,Los Angeles,None,64,Open,2014-10-09,Hospital,General Acute Care Hospital,33.91160180,-118.35194760
106190524,11847,MISSION COMMUNITY HOSPITAL - PANORAMA CAMPUS,930000101,General Acute Care Hospital,14850 ROSCOE BOULEVARD,PANORAMA CITY,91402,19,Los Angeles,Emergency - Basic,145,Open,1965-08-13,Hospital,General Acute Care Hospital,34.22029620,-118.45666500
106190525,11846,MEMORIALCARE LONG BEACH MEDICAL CENTER,930000102,General Acute Care Hospital,2801 ATLANTIC AVENUE,LONG BEACH,90806,19,Los Angeles,Emergency - Basic,453,Open,1960-07-01,Hospital,General Acute Care Hospital,33.80834740,-118.18671930
106190529,11858,USC ARCADIA HOSPITAL,930000103,General Acute Care Hospital,300 WEST HUNTINGTON DRIVE,ARCADIA,91007,19,Los Angeles,Emergency - Basic,348,Open,1957-05-23,Hospital,General Acute Care Hospital,34.13514560,-118.04152830
106190534,,OLYMPIA MEDICAL CENTER,930000105,General Acute Care Hospital,5900 WEST OLYMPIC BLVD,LOS ANGELES,90036,19,Los Angeles,Emergency - Basic,119,Suspense,2021-04-01,Hospital,General Acute Care Hospital,34.05728750,-118.36048500
106190541,11874,MONROVIA MEMORIAL HOSPITAL,930000107,General Acute Care Hospital,323 SOUTH HELIOTROPE AVENUE,MONROVIA,91016,19,Los Angeles,None,49,Open,2008-10-03,Hospital,General Acute Care Hospital,34.14870880,-117.99271570
106190547,12878,MONTEREY PARK HOSPITAL,930000108,General Acute Care Hospital,900 SOUTH ATLANTIC BOULEVARD,MONTEREY PARK,91754,19,Los Angeles,Emergency - Basic,101,Open,1972-12-04,Hospital,General Acute Care Hospital,34.04954780,-118.13832620
106190552,11887,MOTION PICTURE AND TELEVISION HOSPITAL,930000109,Acute Psychiatric Hospital,23388 MULHOLLAND DRIVE,WOODLAND HILLS,91364,19,Los Angeles,Not Applicable,122,Open,1946-03-20,Hospital,Acute Psychiatric Hospital,34.15685730,-118.63573160
106190555,11891,CEDARS-SINAI MEDICAL CENTER,930000110,General Acute Care Hospital,8700 BEVERLY BOULEVARD,LOS ANGELES,90048,19,Los Angeles,Emergency - Basic,915,Open,1955-08-15,Hospital,General Acute Care Hospital,34.07499610,-118.38056380
106190568,11906,NORTHRIDGE HOSPITAL MEDICAL CENTER,930000114,General Acute Care Hospital,18300 ROSCOE BOULEVARD,NORTHRIDGE,91325,19,Los Angeles,Emergency - Basic,394,Open,1955-10-07,Hospital,General Acute Care Hospital,34.22017530,-118.53358370
106190570,11910,NORWALK COMMUNITY HOSPITAL,930000039,General Acute Care Hospital,13222 BLOOMFIELD AVENUE,NORWALK,90650,19,Los Angeles,Emergency - Basic,50,Open,1955-02-28,Hospital,General Acute Care Hospital,33.91071340,-118.06411830
106190587,11927,COLLEGE MEDICAL CENTER,930000117,General Acute Care Hospital,2776 PACIFIC AVENUE,LONG BEACH,90806,19,Los Angeles,Emergency - Basic,121,Open,1956-06-13,Hospital,General Acute Care Hospital,33.80695020,-118.19285320
106190599,12787,KINDRED HOSPITAL PARAMOUNT,930000088,General Acute Care Hospital,16453 COLORADO AVENUE,PARAMOUNT,90723,19,Los Angeles,None,183,Open,2005-02-15,Hospital,General Acute Care Hospital,33.88437840,-118.16200240
106190630,11966,POMONA VALLEY HOSPITAL MEDICAL CENTER,930000128,General Acute Care Hospital,1798 NORTH GAREY AVENUE,POMONA,91767,19,Los Angeles,Emergency - Basic,427,Open,1946-01-01,Hospital,General Acute Care Hospital,34.07687760,-117.75166470
106190631,11968,PIH HEALTH WHITTIER HOSPITAL,930000129,General Acute Care Hospital,12401 WASHINGTON BLVD.,WHITTIER,90602,19,Los Angeles,Emergency - Basic,523,Open,1959-01-15,Hospital,General Acute Care Hospital,33.96903040,-118.04907170
106190636,11971,EMANATE HEALTH QUEEN OF THE VALLEY HOSPITAL,930000131,General Acute Care Hospital,1115 SOUTH SUNSET AVENUE,WEST COVINA,91790,19,Los Angeles,Emergency - Basic,325,Open,1962-12-16,Hospital,General Acute Care Hospital,34.06324720,-117.94467570
106190646,11983,KAISER FOUNDATION HOSPITAL - MENTAL HEALTH CENTER D/P APH,930000077,General Acute Care Hospital,765 COLLEGE STREET,LOS ANGELES,90012,19,Los Angeles,None,68,Open,1946-01-01,Hospital,General Acute Care Hospital,34.06647220,-118.24366260
106190661,13225,L.A. DOWNTOWN MEDICAL CENTER,930000137,General Acute Care Hospital,1711 WEST TEMPLE STREET,LOS ANGELES,90026,19,Los Angeles,None,151,Open,1999-07-07,Hospital,General Acute Care Hospital,34.06953170,-118.26348880
106190673,13084,SAN DIMAS COMMUNITY HOSPITAL,930000139,General Acute Care Hospital,1350 WEST COVINA BOULEVARD,SAN DIMAS,91773,19,Los Angeles,Emergency - Basic,101,Open,1972-10-30,Hospital,General Acute Care Hospital,34.09753300,-117.83453140
106190680,12023,PROVIDENCE LITTLE COMPANY OF MARY MC - SAN PEDRO,930000142,General Acute Care Hospital,1300 WEST SEVENTH STREET,SAN PEDRO,90732,19,Los Angeles,Emergency - Basic,231,Open,1946-01-01,Hospital,General Acute Care Hospital,33.73825830,-118.30509800
106190681,,DOCS SURGICAL HOSPITAL,930000143,General Acute Care Hospital,6000 SAN VICENTE BOULEVARD,LOS ANGELES,90036,19,Los Angeles,None,17,Suspense,2025-10-15,Hospital,General Acute Care Hospital,34.05731000,-118.36231120
106190687,12033,SANTA MONICA - UCLA MEDICAL CENTER AND ORTHOPAEDIC HOSPITAL,930000146,General Acute Care Hospital,1250 16TH STREET,SANTA MONICA,90404,19,Los Angeles,Emergency - Basic,281,Open,1946-01-01,Hospital,General Acute Care Hospital,34.02709980,-118.48630640
106190696,12042,PACIFICA HOSPITAL OF THE VALLEY,930000148,General Acute Care Hospital,9449 SAN FERNANDO ROAD,SUN VALLEY,91352,19,Los Angeles,Emergency - Basic,231,Open,1946-12-30,Hospital,General Acute Care Hospital,34.24008590,-118.39675640
106190708,12047,SHERMAN OAKS HOSPITAL,930000149,General Acute Care Hospital,4929 VAN NUYS BOULEVARD,SHERMAN OAKS,91403,19,Los Angeles,Emergency - Basic,153,Open,1958-03-05,Hospital,General Acute Care Hospital,34.16032800,-118.44916100
106190754,12004,ST. FRANCIS MEDICAL CENTER,930000157,General Acute Care Hospital,3630 E. IMPERIAL HIGHWAY,LYNWOOD,90262,19,Los Angeles,Emergency - Basic,354,Open,1946-01-01,Hospital,General Acute Care Hospital,33.93044500,-118.20341410
106190756,12006,SAINT JOHN'S HEALTH CENTER,930000158,General Acute Care Hospital,2121 SANTA MONICA BLVD.,SANTA MONICA,90404,19,Los Angeles,Emergency - Basic,266,Open,1949-01-01,Hospital,General Acute Care Hospital,34.03077390,-118.47964450
106190758,12008,PROVIDENCE SAINT JOSEPH MEDICAL CENTER,930000159,General Acute Care Hospital,501 S BUENA VISTA STREET,BURBANK,91505,19,Los Angeles,Emergency - Basic,383,Open,1946-01-01,Hospital,General Acute Care Hospital,34.15725330,-118.32928510
106190766,12088,COAST PLAZA HOSPITAL,930000162,General Acute Care Hospital,13100 STUDEBAKER ROAD,NORWALK,90650,19,Los Angeles,Emergency - Basic,117,Open,1958-04-10,Hospital,General Acute Care Hospital,33.91277260,-118.09882570
106190782,12824,TARZANA TREATMENT CENTER,930000163,Acute Psychiatric Hospital,18646 OXNARD STREET,TARZANA,91356,19,Los Angeles,Not Applicable,60,Open,1970-07-01,Hospital,Acute Psychiatric Hospital,34.17950050,-118.53985340
106190796,12127,RONALD REAGAN UCLA MEDICAL CENTER,930000165,General Acute Care Hospital,757 WESTWOOD PLAZA,LOS ANGELES,90095,19,Los Angeles,Emergency - Comprehensive,446,Open,1955-07-01,Hospital,General Acute Care Hospital,34.06647640,-118.44657380
106190812,12140,VALLEY PRESBYTERIAN HOSPITAL,930000170,General Acute Care Hospital,15107 VANOWEN STREET,VAN NUYS,91405,19,Los Angeles,Emergency - Basic,350,Open,1958-01-21,Hospital,General Acute Care Hospital,34.19434150,-118.46277360
106190814,12145,SOUTHERN CALIFORNIA HOSPITAL AT VAN NUYS D/P APH,930000066,General Acute Care Hospital,14433 EMELITA STREET,VAN NUYS,91401,19,Los Angeles,None,59,Open,1964-04-22,Hospital,General Acute Care Hospital,34.17695780,-118.44756970
106190818,12551,USC VERDUGO HILLS HOSPITAL,930000173,General Acute Care Hospital,1812 VERDUGO BOULEVARD,GLENDALE,91208,19,Los Angeles,Emergency - Basic,158,Open,1972-12-08,Hospital,General Acute Care Hospital,34.20416050,-118.21590160
106190857,12180,WEST COVINA MEDICAL CENTER,930000137,General Acute Care Hospital,725 SOUTH ORANGE AVENUE,WEST COVINA,91790,19,Los Angeles,None,46,Open,2022-06-21,Hospital,General Acute Care Hospital,34.07137270,-117.94494550
106190859,12182,UCLA WEST VALLEY MEDICAL CENTER,930000189,General Acute Care Hospital,7300 MEDICAL CENTER DRIVE,WEST HILLS,91307,19,Los Angeles,Emergency - Basic,260,Open,1962-11-07,Hospital,General Acute Care Hospital,34.20305630,-118.62980050
106190878,12198,ADVENTIST HEALTH WHITE MEMORIAL,930000195,General Acute Care Hospital,1720 E. CESAR E. CHAVEZ AVENUE,LOS ANGELES,90033,19,Los Angeles,Emergency - Basic,353,Open,1946-01-01,Hospital,General Acute Care Hospital,34.04929670,-118.21716320
106190883,12201,WHITTIER HOSPITAL MEDICAL CENTER,930000402,General Acute Care Hospital,9080 COLIMA ROAD,WHITTIER,90605,19,Los Angeles,Emergency - Basic,178,Open,1957-05-05,Hospital,General Acute Care Hospital,33.95001680,-118.00345450
106190930,12817,RESNICK NEUROPSYCHIATRIC HOSPITAL AT UCLA,930000204,Acute Psychiatric Hospital,150 Medical Plaza,LOS ANGELES,90095,19,Los Angeles,Not Applicable,74,Open,1957-11-01,Hospital,Acute Psychiatric Hospital,34.06522770,-118.44602820
106190949,13333,HENRY MAYO NEWHALL HOSPITAL,930000206,General Acute Care Hospital,23845 MCBEAN PARKWAY,VALENCIA,91355,19,Los Angeles,Emergency - Basic,334,Open,1975-07-30,Hospital,General Acute Care Hospital,34.39848490,-118.55326630
106190958,,DEPARTMENT OF STATE HOSPITALS - METROPOLITAN,170000832,Acute Psychiatric Hospital,11401 BLOOMFIELD AVENUE,NORWALK,90650,19,Los Angeles,Not Applicable,"1,106",Open,1916-02-16,Hospital,Acute Psychiatric Hospital,33.92893090,-118.06624060
106191216,15179,USC KENNETH NORRIS JR. CANCER HOSPITAL,930000267,General Acute Care Hospital,1441 EASTLAKE AVENUE,LOS ANGELES,90089,19,Los Angeles,None,60,Open,1983-04-11,Hospital,General Acute Care Hospital,34.06151040,-118.20534220
106191225,,TOM REDGATE MEMORIAL RECOVERY CENTER,930000272,Chemical Dep. Recovery Hospital,1775 CHESTNUT STREET,LONG BEACH,90813,19,Los Angeles,Not Applicable,63,Open,1983-02-25,Hospital,Chemical Dep. Recovery Hospital,33.78942880,-118.19660060
106191227,11809,LAC/HARBOR-UCLA MEDICAL CENTER,060000129,General Acute Care Hospital,1000 WEST CARSON STREET,TORRANCE,90502,19,Los Angeles,Emergency - Basic,453,Open,1953-07-01,Hospital,General Acute Care Hospital,33.83028320,-118.29197790
106191228,11810,LOS ANGELES GENERAL MEDICAL CENTER,060000130,General Acute Care Hospital,2051 MARENGO STREET,LOS ANGELES,90033,19,Los Angeles,Emergency - Comprehensive,676,Open,2023-05-22,Hospital,General Acute Care Hospital,34.05765770,-118.20758050
106191230,12259,"MARTIN LUTHER KING, JR. COMMUNITY HOSPITAL",060000132,General Acute Care Hospital,1680 EAST 120TH STREET,LOS ANGELES,90059,19,Los Angeles,Emergency - Basic,131,Open,2015-03-01,Hospital,General Acute Care Hospital,33.92317310,-118.24137020
106191231,15801,LOS ANGELES COUNTY OLIVE VIEW-UCLA MEDICAL CENTER,060000133,General Acute Care Hospital,14445 OLIVE VIEW DRIVE,SYLMAR,91342,19,Los Angeles,Emergency - Basic,355,Open,1959-10-20,Hospital,General Acute Care Hospital,34.32586340,-118.44571480
106191306,11976,LAC/RANCHO LOS AMIGOS NATIONAL REHAB CENTER,060000161,General Acute Care Hospital,7601 EAST IMPERIAL HIGHWAY,DOWNEY,90242,19,Los Angeles,None,158,Open,1966-09-01,Hospital,General Acute Care Hospital,33.93092570,-118.17940610
106191450,15666,KAISER FOUNDATION HOSPITAL - WOODLAND HILLS,930000358,General Acute Care Hospital,5601 DE SOTO AVENUE,WOODLAND HILLS,91367,19,Los Angeles,Emergency - Basic,274,Open,1986-04-08,Hospital,General Acute Care Hospital,34.17343320,-118.59020800
106194010,,AMERICAN RECOVERY CENTER,930000412,Chemical Dep. Recovery Hospital,2180 VALLEY BOULEVARD,POMONA,91768,19,Los Angeles,Not Applicable,40,Open,1987-07-01,Hospital,Chemical Dep. Recovery Hospital,34.06064870,-117.79087600
106194219,16483,KECK HOSPITAL OF USC,930000459,General Acute Care Hospital,1500 SAN PABLO STREET,LOS ANGELES,90033,19,Los Angeles,None,343,Open,1991-05-17,Hospital,General Acute Care Hospital,34.06205840,-118.20127380
106194967,,STAR VIEW ADOLESCENT - P H F,M02016029,Psychiatric Health Facility,4025 WEST 226 STREET,TORRANCE,90505,19,Los Angeles,Not Applicable,16,Open,1996-11-01,Hospital,Psychiatric Health Facility,33.82422250,-118.35601090
106194981,,LA CASA PSYCHIATRIC HEALTH FACILITY,M02016031,Psychiatric Health Facility,6060 PARAMOUNT BLVD.,LONG BEACH,90805,19,Los Angeles,Not Applicable,16,Open,1997-11-10,Hospital,Psychiatric Health Facility,33.86517510,-118.15768070
106196035,17207,KAISER FOUNDATION HOSPITAL - BALDWIN PARK,930000920,General Acute Care Hospital,1011 BALDWIN PARK BLVD.,BALDWIN PARK,91706,19,Los Angeles,Emergency - Basic,271,Open,1998-10-07,Hospital,General Acute Care Hospital,34.06561480,-117.98554720
106196168,17572,MEMORIALCARE MILLER CHILDREN'S & WOMEN'S HOSPITAL LONG BEACH,930000949,General Acute Care Hospital,2801 ATLANTIC AVENUE,LONG BEACH,90806,19,Los Angeles,None,357,Open,2000-06-30,Hospital,General Acute Care Hospital,33.80834740,-118.18671930
106196403,17919,KAISER FOUNDATION HOSPITAL - DOWNEY,930000078,General Acute Care Hospital,9333 IMPERIAL HIGHWAY,DOWNEY,90242,19,Los Angeles,Emergency - Basic,424,Open,2009-08-31,Hospital,General Acute Care Hospital,33.91945570,-118.12900200
106196404,18126,JOYCE EISENBERG KEEFER MEDICAL CENTER,550000621,Acute Psychiatric Hospital,7150 TAMPA AVENUE,RESEDA,91335,19,Los Angeles,Not Applicable,249,Open,2007-10-02,Hospital,Acute Psychiatric Hospital,34.20054910,-118.55302980
106196405,18141,PALMDALE REGIONAL MEDICAL CENTER,930000085,General Acute Care Hospital,38600 MEDICAL CENTER DRIVE,PALMDALE,93551,19,Los Angeles,Emergency - Basic,184,Open,2010-12-09,Hospital,General Acute Care Hospital,34.58287660,-118.14481730
106197931,,EXODUS RECOVERY P.H.F.,M02016052,Psychiatric Health Facility,9808 Venice Blvd,Culver City,90232,19,Los Angeles,Not Applicable,16,Open,2013-12-10,Hospital,Psychiatric Health Facility,34.02347620,-118.39801060
106198495,,OCEAN VIEW PSYCHIATRIC HEALTH FACILITY,M02036043,Psychiatric Health Facility,"2600 REDONDO AVENUE, SUITE 500",LONG BEACH,90806,19,Los Angeles,Not Applicable,39,Open,2017-01-01,Hospital,Psychiatric Health Facility,33.80489270,-118.15079080
106200030,10030,RIVER VISTA BEHAVIORAL HEALTH,550008678,Acute Psychiatric Hospital,40886 GOODWIN WAY,MADERA,93636,20,Madera,Not Applicable,128,Open,2023-08-03,Hospital,Acute Psychiatric Hospital,36.88321230,-119.80446050
106201281,10257,MADERA COMMUNITY HOSPITAL,040000191,General Acute Care Hospital,1250 EAST ALMOND AVENUE,MADERA,93637,20,Madera,Emergency - Basic,103,Open,2025-03-17,Hospital,General Acute Care Hospital,36.94342740,-120.04406900
106204019,17124,VALLEY CHILDREN'S HOSPITAL,040000160,General Acute Care Hospital,9300 VALLEY CHILDREN'S PLACE,MADERA,93636,20,Madera,Emergency - Basic,358,Open,1998-08-31,Hospital,General Acute Care Hospital,36.88403660,-119.80032180
106210992,10268,KAISER FOUNDATION HOSPITAL - SAN RAFAEL,110000357,General Acute Care Hospital,99 MONTECILLO ROAD,SAN RAFAEL,94903,21,Marin,Emergency - Basic,116,Open,1966-12-09,Hospital,General Acute Care Hospital,38.00470450,-122.55468120
106210993,10261,KENTFIELD HOSPITAL,110000358,General Acute Care Hospital,1125 SIR FRANCIS DRAKE BLVD.,KENTFIELD,94904,21,Marin,None,60,Open,1963-09-24,Hospital,General Acute Care Hospital,37.95866700,-122.55243180
106211006,10273,MARINHEALTH MEDICAL CENTER,110000361,General Acute Care Hospital,250 BON AIR ROAD,GREENBRAE,94904,21,Marin,Emergency - Basic,327,Open,1952-05-16,Hospital,General Acute Care Hospital,37.94666920,-122.53584940
106214034,17672,NOVATO COMMUNITY HOSPITAL,110000375,General Acute Care Hospital,180 ROWLAND WAY,NOVATO,94945,21,Marin,Emergency - Basic,47,Open,2001-05-20,Hospital,General Acute Care Hospital,38.09874220,-122.56064390
106220733,10287,JOHN C FREMONT HEALTHCARE DISTRICT,040000108,General Acute Care Hospital,5189 HOSPITAL RD.,MARIPOSA,95338,22,Mariposa,Emergency - Standby,34,Open,1951-10-01,Hospital,General Acute Care Hospital,37.50018080,-119.97744970
106231013,10301,ADVENTIST HEALTH MENDOCINO COAST,110000040,General Acute Care Hospital,700 RIVER DRIVE,FORT BRAGG,95437,23,Mendocino,Emergency - Standby,25,Open,1971-07-01,Hospital,General Acute Care Hospital,39.43137780,-123.80038800
106231396,14560,ADVENTIST HEALTH UKIAH VALLEY,110000095,General Acute Care Hospital,275 HOSPITAL DRIVE,UKIAH,95482,23,Mendocino,Emergency - Basic,68,Open,1980-03-03,Hospital,General Acute Care Hospital,39.15306520,-123.20289060
106234038,18198,ADVENTIST HEALTH HOWARD MEMORIAL,110000013,General Acute Care Hospital,1 MARCELA DRIVE,WILLITS,95490,23,Mendocino,Emergency - Basic,25,Open,2015-11-01,Hospital,General Acute Care Hospital,39.38974480,-123.33870680
106240924,10309,MEMORIAL HOSPITAL LOS BANOS,040000177,General Acute Care Hospital,520 WEST I STREET,LOS BANOS,93635,24,Merced,Emergency - Basic,38,Open,1967-08-31,Hospital,General Acute Care Hospital,37.06409130,-120.85928530
106240942,10315,MERCY MEDICAL CENTER - MERCED,040000178,General Acute Care Hospital,333  MERCY AVENUE,MERCED,95340,24,Merced,Emergency - Basic,186,Open,1956-01-01,Hospital,General Acute Care Hospital,37.34007860,-120.46728960
106244027,,MARIE GREEN PSYCHIATRIC CENTER - P H F,M01016008,Psychiatric Health Facility,300 EAST 15TH STREET,MERCED,95340,24,Merced,Not Applicable,16,Open,1996-08-16,Hospital,Psychiatric Health Facility,37.29340330,-120.47055080
106250955,10321,SURPRISE VALLEY COMMUNITY HOSPITAL,230000025,General Acute Care Hospital,741 N. MAIN STREET,CEDARVILLE,96104,25,Modoc,Emergency - Standby,26,Open,1953-07-01,Hospital,General Acute Care Hospital,41.53148260,-120.17143500
106254005,18231,MODOC MEDICAL CENTER,230000026,General Acute Care Hospital,1111 N. NAGLE ST,ALTURAS,96101,25,Modoc,Emergency - Standby,46,Open,2020-12-18,Hospital,General Acute Care Hospital,41.49372810,-120.55369730
106260011,14304,MAMMOTH HOSPITAL,240000008,General Acute Care Hospital,85 SIERRA PARK ROAD,MAMMOTH LAKES,93546,26,Mono,Emergency - Standby,17,Open,1978-02-10,Hospital,General Acute Care Hospital,37.64411650,-118.96355350
106270020,,COMMUNITY HOSPITAL OF THE MONTEREY PENINSULA - OHANA,M20016066,Psychiatric Health Facility,6 LOWER RAGSDALE DRIVE,MONTEREY,93940,27,Monterey,Not Applicable,16,Open,2023-12-12,Hospital,Psychiatric Health Facility,36.57524990,-121.82013600
106270744,10330,COMMUNITY HOSPITAL OF THE MONTEREY PENINSULA,070000026,General Acute Care Hospital,23625 W. R. HOLMAN HIGHWAY,MONTEREY,93940,27,Monterey,Emergency - Basic,258,Open,1962-06-19,Hospital,General Acute Care Hospital,36.57856090,-121.91340610
106270777,10338,GEORGE L. MEE MEMORIAL HOSPITAL,070000047,General Acute Care Hospital,300 CANAL STREET,KING CITY,93930,27,Monterey,Emergency - Basic,73,Open,1962-09-12,Hospital,General Acute Care Hospital,36.20609860,-121.13284960
106270875,10348,SALINAS VALLEY HEALTH MEDICAL CENTER,070000083,General Acute Care Hospital,450 EAST ROMIE LANE,SALINAS,93901,27,Monterey,Emergency - Basic,263,Open,1953-04-10,Hospital,General Acute Care Hospital,36.65949180,-121.64568960
106274043,17353,NATIVIDAD MEDICAL CENTER,070000070,General Acute Care Hospital,1441 CONSTITUTION BOULEVARD,SALINAS,93906,27,Monterey,Emergency - Basic,172,Open,1999-06-15,Hospital,General Acute Care Hospital,36.69666880,-121.63308870
106281047,10362,PROVIDENCE QUEEN OF THE VALLEY MEDICAL CENTER,110000060,General Acute Care Hospital,1000 TRANCAS STREET,NAPA,94558,28,Napa,Emergency - Basic,198,Open,1958-03-08,Hospital,General Acute Care Hospital,38.32448200,-122.29710940
106281078,10366,ADVENTIST HEALTH ST. HELENA,110000073,General Acute Care Hospital,10 WOODLAND RD.,ST. HELENA,94574,28,Napa,Emergency - Standby,150,Open,1946-01-01,Hospital,General Acute Care Hospital,38.54254980,-122.47482810
106281266,,DEPARTMENT OF STATE HOSPITALS - NAPA,150000492,Acute Psychiatric Hospital,2100 NAPA-VALLEJO HIGHWAY,NAPA,94558,28,Napa,Not Applicable,"1,418",Open,1946-01-01,Hospital,Acute Psychiatric Hospital,38.27690300,-122.26945080
106291023,10375,SIERRA NEVADA MEMORIAL HOSPITAL,230000152,General Acute Care Hospital,155 GLASSON WAY,GRASS VALLEY,95945,29,Nevada,Emergency - Basic,104,Open,1958-12-24,Hospital,General Acute Care Hospital,39.22788240,-121.04593980
106291053,10377,TAHOE FOREST HOSPITAL,230000151,General Acute Care Hospital,10121 PINE AVE,TRUCKEE,96161,29,Nevada,Emergency - Basic,70,Open,1952-04-01,Hospital,General Acute Care Hospital,39.32594060,-120.20079850
106300020,,CITY OF HOPE ORANGE COUNTY CANCER SPECIALTY HOSPITAL,550009999,General Acute Care Hospital,1000 FIVEPOINT,IRVINE,92618,30,Orange,None,,Open,2025-10-23,Hospital,General Acute Care Hospital,33.65100260,-117.72969000
106300032,14370,RADY CHILDREN'S HOSPITAL ORANGE COUNTY,060000011,General Acute Care Hospital,1201 WEST LA VETA AVENUE,ORANGE,92868,30,Orange,Emergency - Basic,386,Open,1978-06-30,Hospital,General Acute Care Hospital,33.78098770,-117.86575810
106300225,15630,MEMORIALCARE ORANGE COAST MEDICAL CENTER,060000066,General Acute Care Hospital,9920 TALBERT AVENUE,FOUNTAIN VALLEY,92708,30,Orange,Emergency - Basic,221,Open,1986-02-01,Hospital,General Acute Care Hospital,33.70046640,-117.95574520
106301097,10381,"ANAHEIM COMMUNITY HOSPITAL, LLC",060000079,General Acute Care Hospital,3350 WEST BALL ROAD,ANAHEIM,92804,30,Orange,None,98,Open,2022-11-15,Hospital,General Acute Care Hospital,33.81559000,-118.00704200
106301098,10382,AHMC ANAHEIM REGIONAL MEDICAL CENTER,060000080,General Acute Care Hospital,1111 WEST LA PALMA AVENUE,ANAHEIM,92801,30,Orange,Emergency - Basic,223,Open,1958-02-18,Hospital,General Acute Care Hospital,33.84803840,-117.93350440
106301127,13068,KINDRED HOSPITAL BREA,060000407,General Acute Care Hospital,875 NORTH BREA BOULEVARD,BREA,92821,30,Orange,None,86,Open,1995-03-03,Hospital,General Acute Care Hospital,33.93443990,-117.89401540
106301140,10400,CHAPMAN GLOBAL MEDICAL CENTER,060000097,General Acute Care Hospital,2601 EAST CHAPMAN AVENUE,ORANGE,92869,30,Orange,Emergency - Basic,114,Open,1968-12-03,Hospital,General Acute Care Hospital,33.78855570,-117.82633580
106301155,10405,COLLEGE HOSPITAL COSTA MESA,060000100,General Acute Care Hospital,301 VICTORIA STREET,COSTA MESA,92627,30,Orange,None,122,Open,1968-09-05,Hospital,General Acute Care Hospital,33.65179530,-117.91181000
106301167,10407,KINDRED HOSPITAL - SANTA ANA,060000407,General Acute Care Hospital,1901 COLLEGE AVENUE,SANTA ANA,92706,30,Orange,None,54,Open,2025-09-01,Hospital,General Acute Care Hospital,33.76218840,-117.89162230
106301175,12834,UCI HEALTH-FOUNTAIN VALLEY,060000148,General Acute Care Hospital,17100 EUCLID STREET,FOUNTAIN VALLEY,92708,30,Orange,Emergency - Basic,293,Open,2025-04-01,Hospital,General Acute Care Hospital,33.71510680,-117.93599250
106301188,13061,ANAHEIM GLOBAL MEDICAL CENTER,060000117,General Acute Care Hospital,1025 SOUTH ANAHEIM BLVD.,ANAHEIM,92805,30,Orange,Emergency - Basic,189,Open,1972-12-29,Hospital,General Acute Care Hospital,33.81968270,-117.90979610
106301205,10428,HOAG MEMORIAL HOSPITAL PRESBYTERIAN,060000122,General Acute Care Hospital,1 HOAG DRIVE,NEWPORT BEACH,92663,30,Orange,Emergency - Basic,440,Open,1952-09-15,Hospital,General Acute Care Hospital,33.62473650,-117.92974220
106301209,10431,HUNTINGTON BEACH HOSPITAL,060000124,General Acute Care Hospital,17772 BEACH BOULEVARD,HUNTINGTON BEACH,92647,30,Orange,Emergency - Basic,131,Open,1967-04-03,Hospital,General Acute Care Hospital,33.70376380,-117.98644770
106301234,13019,LA PALMA INTERCOMMUNITY HOSPITAL,060000136,General Acute Care Hospital,7901 WALKER STREET,LA PALMA,90623,30,Orange,Emergency - Basic,127,Open,1972-05-30,Hospital,General Acute Care Hospital,33.84737500,-118.03818610
106301248,10440,UCI HEALTH-LOS ALAMITOS,060000148,General Acute Care Hospital,3751 KATELLA AVENUE,LOS ALAMITOS,90720,30,Orange,Emergency - Basic,172,Open,2025-04-01,Hospital,General Acute Care Hospital,33.80425160,-118.06754240
106301258,13059,SOUTH COAST GLOBAL MEDICAL CENTER,060000143,General Acute Care Hospital,2701 S. BRISTOL STREET,SANTA ANA,92704,30,Orange,Emergency - Basic,178,Open,1973-06-07,Hospital,General Acute Care Hospital,33.71107180,-117.88403140
106301262,12804,PROVIDENCE MISSION HOSPITAL,060000146,General Acute Care Hospital,27700 MEDICAL CENTER ROAD,MISSION VIEJO,92691,30,Orange,Emergency - Basic,345,Open,1971-08-10,Hospital,General Acute Care Hospital,33.56100580,-117.66537060
106301279,10446,UCI HEALTH-ORANGE,060000148,General Acute Care Hospital,101 CITY DRIVE SOUTH,ORANGE,92868,30,Orange,Emergency - Comprehensive,459,Open,1953-07-01,Hospital,General Acute Care Hospital,33.78712650,-117.88833910
106301283,10450,GARDEN GROVE HOSPITAL AND MEDICAL CENTER,060000152,General Acute Care Hospital,12601 GARDEN GROVE BLVD.,GARDEN GROVE,92843,30,Orange,Emergency - Basic,167,Open,1958-01-07,Hospital,General Acute Care Hospital,33.77500660,-117.91290790
106301297,13077,UCI HEALTH-PLACENTIA LINDA,060000148,General Acute Care Hospital,1301 NORTH ROSE DRIVE,PLACENTIA,92870,30,Orange,Emergency - Basic,114,Open,2025-04-01,Hospital,General Acute Care Hospital,33.88728370,-117.84275250
106301317,12755,MEMORIALCARE SADDLEBACK MEDICAL CENTER,060000166,General Acute Care Hospital,24451 HEALTH CENTER DRIVE,LAGUNA HILLS,92653,30,Orange,Emergency - Basic,248,Open,1974-01-27,Hospital,General Acute Care Hospital,33.60932520,-117.70892980
106301337,10468,PROVIDENCE MISSION HOSPITAL - LAGUNA BEACH,060000146,General Acute Care Hospital,31872 COAST HIGHWAY,LAGUNA BEACH,92651,30,Orange,Emergency - Basic,159,Open,2009-07-01,Hospital,General Acute Care Hospital,33.50025690,-117.74194170
106301340,10457,PROVIDENCE ST. JOSEPH HOSPITAL,060000172,General Acute Care Hospital,1100 WEST STEWART DRIVE,ORANGE,92868,30,Orange,Emergency - Basic,483,Open,1964-10-27,Hospital,General Acute Care Hospital,33.78168600,-117.86448400
106301342,10458,PROVIDENCE ST. JUDE MEDICAL CENTER,060000173,General Acute Care Hospital,101 EAST VALENCIA MESA DRIVE,FULLERTON,92835,30,Orange,Emergency - Basic,320,Open,1957-05-13,Hospital,General Acute Care Hospital,33.89435010,-117.92786000
106301357,12573,FOOTHILL REGIONAL MEDICAL CENTER,060000178,General Acute Care Hospital,14662 NEWPORT AVENUE,TUSTIN,92780,30,Orange,Emergency - Basic,177,Open,1998-02-23,Hospital,General Acute Care Hospital,33.73011680,-117.82848690
106301379,10475,WEST ANAHEIM MEDICAL CENTER,060000182,General Acute Care Hospital,3033 WEST ORANGE AVENUE,ANAHEIM,92804,30,Orange,Emergency - Basic,219,Open,1964-08-05,Hospital,General Acute Care Hospital,33.82535850,-117.99487970
106301380,10476,KINDRED HOSPITAL WESTMINSTER,060000183,General Acute Care Hospital,200 HOSPITAL CIRCLE,WESTMINSTER,92683,30,Orange,None,109,Open,1959-09-15,Hospital,General Acute Care Hospital,33.76365660,-117.99527770
106301566,18007,ORANGE COUNTY GLOBAL MEDICAL CENTER,060000188,General Acute Care Hospital,1001 NORTH TUSTIN AVENUE,SANTA ANA,92705,30,Orange,Emergency - Basic,282,Open,1975-04-19,Hospital,General Acute Care Hospital,33.75428390,-117.83280060
106304039,16234,UCI HEALTH-FOUNTAIN VALLEY,060000148,General Acute Care Hospital,11250 WARNER AVENUE,FOUNTAIN VALLEY,92708,30,Orange,None,107,Open,2025-04-01,Hospital,General Acute Care Hospital,33.71315510,-117.93236020
106304045,16319,HOAG HOSPITAL IRVINE,060000122,General Acute Care Hospital,16200 SAND CANYON AVENUE,IRVINE,92618,30,Orange,Emergency - Basic,96,Open,2010-08-26,Hospital,General Acute Care Hospital,33.66068070,-117.77230860
106304113,10922,CHILDREN'S HOSPITAL AT MISSION,060000348,General Acute Care Hospital,"27700 MEDICAL CTR. RD., 5TH FL",MISSION VIEJO,92691,30,Orange,Emergency - Basic,54,Open,1993-01-01,Hospital,General Acute Care Hospital,33.56099600,-117.66545500
106304159,17438,HEALTHBRIDGE CHILDREN'S HOSPITAL-ORANGE,060000530,General Acute Care Hospital,393 S. TUSTIN STREET,ORANGE,92866,30,Orange,None,27,Open,2000-02-04,Hospital,General Acute Care Hospital,33.78274150,-117.83385630
106304306,18152,KAISER FOUNDATION HOSPITAL - ORANGE COUNTY - IRVINE,060000091,General Acute Care Hospital,6640 ALTON PARKWAY,IRVINE,92618,30,Orange,Emergency - Basic,269,Open,2008-05-07,Hospital,General Acute Care Hospital,33.65816150,-117.77490190
106304409,18178,KAISER FOUNDATION HOSPITAL - ORANGE COUNTY - ANAHEIM,060000091,General Acute Care Hospital,3440 E LA PALMA AVE,ANAHEIM,92806,30,Orange,Emergency - Basic,262,Open,2012-07-12,Hospital,General Acute Care Hospital,33.85201870,-117.84410750
106304460,18193,HOAG ORTHOPEDIC INSTITUTE,550001431,General Acute Care Hospital,16250 SAND CANYON AVENUE,IRVINE,92618,30,Orange,None,70,Open,2010-11-10,Hospital,General Acute Care Hospital,33.66074710,-117.77245940
106304583,,"LAGUNA TREATMENT CENTER, LLC",550003560,Chemical Dep. Recovery Hospital,24552 PACIFIC PARK DRIVE,ALISO VIEJO,92656,30,Orange,Not Applicable,93,Open,2016-06-15,Hospital,Chemical Dep. Recovery Hospital,33.57126250,-117.70118620
106304585,18226,ENCOMPASS HEALTH REHABILITATION HOSPITAL OF TUSTIN,060000303,General Acute Care Hospital,15120 KENSINGTON PARK DRIVE,TUSTIN,92782,30,Orange,None,65,Open,2022-04-22,Hospital,General Acute Care Hospital,33.71266990,-117.81549150
106304589,18228,"ALISO RIDGE BEHAVIORAL HEALTH, LLC",550007782,Acute Psychiatric Hospital,200 FREEDOM LANE,ALISO VIEJO,92656,30,Orange,Not Applicable,119,Open,2022-01-14,Hospital,Acute Psychiatric Hospital,33.56275000,-117.72825540
106310791,10494,SUTTER AUBURN FAITH HOSPITAL,030000012,General Acute Care Hospital,11815 EDUCATION STREET,AUBURN,95602,31,Placer,Emergency - Basic,64,Open,1966-06-30,Hospital,General Acute Care Hospital,38.94529520,-121.10068250
106311000,17700,SUTTER ROSEVILLE MEDICAL CENTER,030000083,General Acute Care Hospital,1 MEDICAL PLAZA DRIVE,ROSEVILLE,95661,31,Placer,Emergency - Basic,418,Open,1997-06-19,Hospital,General Acute Care Hospital,38.76625110,-121.24922340
106314024,14214,KAISER FOUNDATION HOSPITAL - ROSEVILLE,550001681,General Acute Care Hospital,1600 EUREKA ROAD,ROSEVILLE,95661,31,Placer,Emergency - Basic,352,Open,2011-09-10,Hospital,General Acute Care Hospital,38.74587320,-121.24864830
106314029,,CIRBY HILLS BEHAVIORAL HEALTH,M20016061,Psychiatric Health Facility,101 CIRBY HILLS DRIVE,ROSEVILLE,95678,31,Placer,Not Applicable,16,Open,2001-02-14,Hospital,Psychiatric Health Facility,38.73040920,-121.28619220
106320859,10514,EASTERN PLUMAS HOSPITAL-PORTOLA CAMPUS,230000014,General Acute Care Hospital,500 1ST AVE,PORTOLA,96122,32,Plumas,Emergency - Standby,36,Open,1971-08-16,Hospital,General Acute Care Hospital,39.80573600,-120.46294600
106320986,10512,PLUMAS DISTRICT HOSPITAL,230000030,General Acute Care Hospital,1065 BUCKS LAKE ROAD,QUINCY,95971,32,Plumas,Emergency - Standby,16,Open,1959-04-14,Hospital,General Acute Care Hospital,39.94020190,-120.96197500
106321016,10513,SENECA DISTRICT HOSPITAL,230000032,General Acute Care Hospital,130 BRENTWOOD DRIVE,CHESTER,96020,32,Plumas,Emergency - Standby,26,Open,1953-01-01,Hospital,General Acute Care Hospital,40.30596550,-121.23407580
106330120,,THE BETTY FORD CENTER,250000049,Chemical Dep. Recovery Hospital,39407 Vista del Sol,Rancho Mirage,92270,33,Riverside,Not Applicable,100,Open,1983-07-05,Hospital,Chemical Dep. Recovery Hospital,33.76525300,-116.39766580
106330901,10901,COACHELLA VALLEY BEHAVIORAL HEALTH,550009586,Acute Psychiatric Hospital,81555 JFK COURT,Indio,92201,33,Riverside,Not Applicable,80,Open,2024-12-12,Hospital,Acute Psychiatric Hospital,33.70530990,-116.24240080
106331145,10526,CORONA REGIONAL MEDICAL CENTER-MAGNOLIA,250000126,General Acute Care Hospital,730 MAGNOLIA AVENUE,CORONA,92879,33,Riverside,None,99,Open,1965-01-15,Hospital,General Acute Care Hospital,33.85814230,-117.55371210
106331152,10529,CORONA REGIONAL MEDICAL CENTER-MAIN,250000126,General Acute Care Hospital,800 SOUTH MAIN STREET,CORONA,92882,33,Riverside,Emergency - Basic,160,Open,1965-03-31,Hospital,General Acute Care Hospital,33.87293100,-117.56831320
106331164,10537,DESERT REGIONAL MEDICAL CENTER,250000139,General Acute Care Hospital,1150 NORTH INDIAN CANYON DRIVE,PALM SPRINGS,92262,33,Riverside,Emergency - Comprehensive,385,Open,1951-09-20,Hospital,General Acute Care Hospital,33.83860980,-116.54319870
106331168,12662,EISENHOWER MEDICAL CENTER,250000142,General Acute Care Hospital,39000 BOB HOPE DRIVE,RANCHO MIRAGE,92270,33,Riverside,Emergency - Basic,463,Open,1971-12-27,Hospital,General Acute Care Hospital,33.76418080,-116.40264660
106331194,10541,HEMET GLOBAL MEDICAL CENTER,250000145,General Acute Care Hospital,1117 EAST DEVONSHIRE,HEMET,92543,33,Riverside,Emergency - Basic,327,Open,1946-01-01,Hospital,General Acute Care Hospital,33.75037080,-116.96013030
106331216,10545,JOHN F. KENNEDY MEMORIAL HOSPITAL,250000155,General Acute Care Hospital,47111 MONROE STREET,INDIO,92201,33,Riverside,Emergency - Basic,145,Open,1966-02-18,Hospital,General Acute Care Hospital,33.70623200,-116.23549030
106331226,10548,PACIFIC GROVE HOSPITAL,250000476,Acute Psychiatric Hospital,5900 BROCKTON AVENUE,RIVERSIDE,92506,33,Riverside,Not Applicable,68,Open,1961-10-01,Hospital,Acute Psychiatric Hospital,33.96232560,-117.39534310
106331288,10553,PALO VERDE HOSPITAL,250000184,General Acute Care Hospital,250 NORTH FIRST STREET,BLYTHE,92225,33,Riverside,Emergency - Standby,25,Open,1946-03-20,Hospital,General Acute Care Hospital,33.61264950,-114.59508200
106331293,10554,DOCTORS HOSPITAL OF RIVERSIDE,250000186,General Acute Care Hospital,3865 JACKSON STREET,RIVERSIDE,92503,33,Riverside,Emergency - Basic,193,Open,1958-10-24,Hospital,General Acute Care Hospital,33.92684830,-117.43906200
106331312,10556,RIVERSIDE COMMUNITY HOSPITAL,250000194,General Acute Care Hospital,4445 MAGNOLIA AVENUE,RIVERSIDE,92501,33,Riverside,Emergency - Basic,517,Open,1946-01-01,Hospital,General Acute Care Hospital,33.97722130,-117.38156940
106331314,17922,RIVERSIDE UNIVERSITY HEALTH SYSTEM - D/P APH,250000195,General Acute Care Hospital,9990 COUNTY FARM ROAD,RIVERSIDE,92503,33,Riverside,None,77,Open,1990-06-11,Hospital,General Acute Care Hospital,33.91870630,-117.45930950
106331326,10559,SAN GORGONIO MEMORIAL HOSPITAL,250000199,General Acute Care Hospital,600 N. HIGHLAND SPRINGS AVENUE,BANNING,92220,33,Riverside,Emergency - Basic,79,Open,1951-03-13,Hospital,General Acute Care Hospital,33.93211890,-116.94547560
106332172,13030,KINDRED HOSPITAL - RIVERSIDE,250000234,General Acute Care Hospital,2224 MEDICAL CENTER DRIVE,PERRIS,92571,33,Riverside,None,40,Open,2007-05-01,Hospital,General Acute Care Hospital,33.81258980,-117.22267520
106334001,15749,SOUTHWEST HEALTHCARE INLAND VALLEY HOSPITAL,250000262,General Acute Care Hospital,36485 INLAND VALLEY,WILDOMAR,92595,33,Riverside,Emergency - Basic,120,Open,1987-01-14,Hospital,General Acute Care Hospital,33.59170310,-117.23752210
106334018,16148,MENIFEE GLOBAL MEDICAL CENTER,250000338,General Acute Care Hospital,28400 MCCALL BOULEVARD,SUN CITY,92585,33,Riverside,Emergency - Basic,84,Open,1989-06-05,Hospital,General Acute Care Hospital,33.71899510,-117.16815170
106334025,16164,KAISER FOUNDATION HOSPITAL - RIVERSIDE,250000327,General Acute Care Hospital,10800 MAGNOLIA AVENUE,RIVERSIDE,92505,33,Riverside,Emergency - Basic,225,Open,1989-09-11,Hospital,General Acute Care Hospital,33.90492890,-117.46921420
106334048,16325,KAISER FOUNDATION HOSPITAL - MORENO VALLEY,550000810,General Acute Care Hospital,27300 IRIS AVENUE,MORENO VALLEY,92555,33,Riverside,Emergency - Basic,100,Open,1990-10-03,Hospital,General Acute Care Hospital,33.89671560,-117.18625880
106334068,16681,SOUTHWEST HEALTHCARE RANCHO SPRINGS HOSPITAL,250000262,General Acute Care Hospital,25500 MEDICAL CENTER DRIVE,MURRIETA,92562,33,Riverside,Emergency - Basic,120,Open,1992-02-19,Hospital,General Acute Care Hospital,33.55909990,-117.18396460
106334457,,TELECARE RIVERSIDE COUNTY PSYCHIATRIC HEALTH FACILITY,M02016056,Psychiatric Health Facility,47-915 OASIS STREET,INDIO,92201,33,Riverside,Not Applicable,16,Open,2014-08-04,Hospital,Psychiatric Health Facility,33.70081600,-116.22199570
106334487,15007,RIVERSIDE UNIVERSITY HEALTH SYSTEM - MEDICAL CENTER,250000195,General Acute Care Hospital,26520 CACTUS AVENUE,MORENO VALLEY,92555,33,Riverside,Emergency - Basic,362,Open,1998-04-01,Hospital,General Acute Care Hospital,33.91213420,-117.19572330
106334533,18162,REHABILITATION HOSPITAL OF SOUTHERN CALIFORNIA,550004348,General Acute Care Hospital,70077 RAMON RD,RANCHO MIRAGE,92270,33,Riverside,None,50,Open,2018-08-24,Hospital,General Acute Care Hospital,33.81499900,-116.43985950
106334564,18167,TEMECULA VALLEY HOSPITAL,550002434,General Acute Care Hospital,31700 TEMECULA PKWY,TEMECULA,92592,33,Riverside,Emergency - Basic,140,Open,2013-10-09,Hospital,General Acute Care Hospital,33.48011400,-117.10684190
106334589,18175,LOMA LINDA UNIVERSITY MEDICAL CENTER-MURRIETA,550001535,General Acute Care Hospital,28062 BAXTER ROAD,MURRIETA,92563,33,Riverside,Emergency - Basic,111,Open,2011-04-12,Hospital,General Acute Care Hospital,33.61473030,-117.16985570
106334678,18213,ENCOMPASS HEALTH REHABILITATION HOSPITAL OF MURRIETA,550005282,General Acute Care Hospital,35470 WHITEWOOD ROAD,MURRIETA,92563,33,Riverside,None,50,Open,2020-02-12,Hospital,General Acute Care Hospital,33.60640990,-117.16170200
106340025,10025,UC DAVIS REHABILITATION HOSPITAL,550008538,General Acute Care Hospital,4875 BROADWAY,SACRAMENTO,95820,34,Sacramento,None,52,Open,2023-05-17,Hospital,General Acute Care Hospital,38.54736370,-121.45114060
106340041,,HERITAGE OAKS ENRICHMENT CENTER,M02016064,Psychiatric Health Facility,4378 AUBURN BOULEVARD,SACRAMENTO,95841,34,Sacramento,Not Applicable,16,Open,2021-10-18,Hospital,Psychiatric Health Facility,38.64535230,-121.36108050
106340913,10604,KAISER FOUNDATION HOSPITAL - SACRAMENTO,030000052,General Acute Care Hospital,2025 MORSE AVENUE,SACRAMENTO,95825,34,Sacramento,Emergency - Basic,287,Open,1961-05-11,Hospital,General Acute Care Hospital,38.60190480,-121.39246410
106340947,10606,MERCY GENERAL HOSPITAL,030000062,General Acute Care Hospital,4001 J STREET,SACRAMENTO,95819,34,Sacramento,Emergency - Basic,313,Open,1946-01-01,Hospital,General Acute Care Hospital,38.57070650,-121.45288880
106340950,10607,MERCY SAN JUAN MEDICAL CENTER,030000063,General Acute Care Hospital,6501 COYLE AVENUE,CARMICHAEL,95608,34,Sacramento,Emergency - Basic,384,Open,1967-02-03,Hospital,General Acute Care Hospital,38.66930750,-121.31364040
106340951,13012,METHODIST HOSPITAL OF SACRAMENTO,030000064,General Acute Care Hospital,7500 HOSPITAL DRIVE,SACRAMENTO,95823,34,Sacramento,Emergency - Basic,158,Open,1973-10-24,Hospital,General Acute Care Hospital,38.46310260,-121.41633170
106341006,10619,UNIVERSITY OF CALIFORNIA DAVIS MEDICAL CENTER,030000086,General Acute Care Hospital,2315 STOCKTON BOULEVARD,SACRAMENTO,95817,34,Sacramento,Emergency - Comprehensive,653,Open,1953-08-26,Hospital,General Acute Care Hospital,38.55443520,-121.45542220
106341051,10625,"SUTTER MEDICAL CENTER, SACRAMENTO",030000102,General Acute Care Hospital,2825 CAPITOL AVE,SACRAMENTO,95816,34,Sacramento,Emergency - Basic,523,Open,1987-06-19,Hospital,General Acute Care Hospital,38.57090210,-121.46945050
106341326,11326,SACRAMENTO REHABILITATION HOSPITAL,550008395,General Acute Care Hospital,10 ADVANTAGE COURT,SACRAMENTO,95834,34,Sacramento,None,50,Open,2023-02-24,Hospital,General Acute Care Hospital,38.65184660,-121.52916830
106342344,15570,KAISER FOUNDATION HOSPITAL - SOUTH SACRAMENTO,030000228,General Acute Care Hospital,6600 BRUCEVILLE ROAD,SACRAMENTO,95823,34,Sacramento,Emergency - Basic,241,Open,1985-10-24,Hospital,General Acute Care Hospital,38.47032700,-121.42307200
106342392,15719,"SIERRA VISTA HOSPITAL, INC",030000290,Acute Psychiatric Hospital,8001 BRUCEVILLE ROAD,SACRAMENTO,95823,34,Sacramento,Not Applicable,171,Open,1986-10-19,Hospital,Acute Psychiatric Hospital,38.46729320,-121.41709060
106344011,,SACRAMENTO MENTAL HEALTH TREATMENT CENTER,M01050011,Psychiatric Health Facility,2150 STOCKTON BOULEVARD,SACRAMENTO,95817,34,Sacramento,Not Applicable,50,Open,1988-01-29,Hospital,Psychiatric Health Facility,38.55761240,-121.46163580
106344017,15944,SUTTER CENTER FOR PSYCHIATRY,030000347,Acute Psychiatric Hospital,7700 FOLSOM BOULEVARD,SACRAMENTO,95826,34,Sacramento,Not Applicable,73,Open,1988-06-24,Hospital,Acute Psychiatric Hospital,38.54974290,-121.41449260
106344021,16069,HERITAGE OAKS HOSPITAL,030000357,Acute Psychiatric Hospital,4250 AUBURN BLVD.,SACRAMENTO,95841,34,Sacramento,Not Applicable,125,Open,1988-12-16,Hospital,Acute Psychiatric Hospital,38.64339440,-121.36461620
106344029,16150,MERCY HOSPITAL OF FOLSOM,030000372,General Acute Care Hospital,1650 CREEKSIDE DRIVE,FOLSOM,95630,34,Sacramento,Emergency - Basic,106,Open,1989-06-17,Hospital,General Acute Care Hospital,38.67050760,-121.14611550
106344035,10631,VIBRA HOSPITAL OF SACRAMENTO,030000377,General Acute Care Hospital,330 MONTROSE DRIVE,FOLSOM,95630,34,Sacramento,None,58,Open,2013-08-31,Hospital,General Acute Care Hospital,38.68125120,-121.15892870
106344114,14506,SHRINERS HOSPITALS FOR CHILDREN NORTHERN CALIF.,030000620,General Acute Care Hospital,2425 STOCKTON BLVD,SACRAMENTO,95817,34,Sacramento,None,80,Open,1997-04-11,Hospital,General Acute Care Hospital,38.55303010,-121.45417150
106344170,,CRESTWOOD PSYCHIATRIC HEALTH FACILITY-CARMICHAEL,M02016042,Psychiatric Health Facility,4741 ENGLE ROAD,CARMICHAEL,95608,34,Sacramento,Not Applicable,16,Open,2010-02-22,Hospital,Psychiatric Health Facility,38.63343950,-121.35464390
106344188,,CRESTWOOD PSYCHIATRIC HEALTH FACILITY-SACRAMENTO,M02016048,Psychiatric Health Facility,"2600 STOCKTON BLVD, STE B",SACRAMENTO,95817,34,Sacramento,Not Applicable,16,Open,2012-07-05,Hospital,Psychiatric Health Facility,38.55186760,-121.45642050
106344210,18217,"SACRAMENTO BEHAVIORAL HEALTHCARE HOSPITAL, LLC",550007457,Acute Psychiatric Hospital,1400 EXPO PARKWAY,SACRAMENTO,95815,34,Sacramento,Not Applicable,117,Open,2021-12-17,Hospital,Acute Psychiatric Hospital,38.59705350,-121.45744690
106350784,10640,HAZEL HAWKINS MEMORIAL HOSPITAL,070000004,General Acute Care Hospital,911 SUNSET DRIVE,HOLLISTER,95023,35,San Benito,Emergency - Basic,82,Open,1962-06-29,Hospital,General Acute Care Hospital,36.83389850,-121.38610550
106361110,13035,BEAR VALLEY COMMUNITY HOSPITAL,240000111,General Acute Care Hospital,41870 GARSTIN DRIVE,BIG BEAR LAKE,92315,36,San Bernardino,Emergency - Standby,30,Open,1974-07-05,Hospital,General Acute Care Hospital,34.24648960,-116.88838700
106361144,13072,CHINO VALLEY MEDICAL CENTER,240000125,General Acute Care Hospital,5451 WALNUT AVENUE,CHINO,91710,36,San Bernardino,Emergency - Basic,112,Open,1972-10-01,Hospital,General Acute Care Hospital,34.02551590,-117.68600290
106361166,12992,MONTCLAIR HOSPITAL MEDICAL CENTER,240000141,General Acute Care Hospital,5000 SAN BERNARDINO STREET,MONTCLAIR,91763,36,San Bernardino,Emergency - Basic,106,Open,1972-08-07,Hospital,General Acute Care Hospital,34.07873640,-117.69600750
106361223,10670,KAISER FOUNDATION HOSPITAL - FONTANA,240000159,General Acute Care Hospital,9961 SIERRA AVENUE,FONTANA,92335,36,San Bernardino,Emergency - Basic,450,Open,1954-09-01,Hospital,General Acute Care Hospital,34.07346230,-117.43436600
106361245,13073,LOMA LINDA UNIV. MED. CENTER EAST CAMPUS HOSPITAL,240000169,General Acute Care Hospital,25333 BARTON ROAD,LOMA LINDA,92354,36,San Bernardino,None,134,Open,1972-09-19,Hospital,General Acute Care Hospital,34.04685760,-117.25153660
106361246,10677,LOMA LINDA UNIVERSITY MEDICAL CENTER,240000169,General Acute Care Hospital,11234 ANDERSON STREET,LOMA LINDA,92354,36,San Bernardino,Emergency - Basic,320,Open,1946-01-01,Hospital,General Acute Care Hospital,34.04945190,-117.26417740
106361266,10681,MOUNTAINS COMMUNITY HOSPITAL,240000176,General Acute Care Hospital,29101 HOSPITAL ROAD,LAKE ARROWHEAD,92352,36,San Bernardino,Emergency - Standby,37,Open,1951-10-10,Hospital,General Acute Care Hospital,34.26543480,-117.16855960
106361274,10685,KINDRED HOSPITAL - ONTARIO,240000561,General Acute Care Hospital,550 NORTH MONTEREY AVENUE,ONTARIO,91764,36,San Bernardino,None,91,Open,1951-05-25,Hospital,General Acute Care Hospital,34.06959440,-117.64215840
106361308,10691,REDLANDS COMMUNITY HOSPITAL,240000191,General Acute Care Hospital,350 TERRACINA BOULEVARD,REDLANDS,92373,36,San Bernardino,Emergency - Basic,211,Open,1946-01-01,Hospital,General Acute Care Hospital,34.03670640,-117.20583280
106361318,10696,SAN ANTONIO REGIONAL HOSPITAL,240000196,General Acute Care Hospital,999 SAN BERNARDINO ROAD,UPLAND,91786,36,San Bernardino,Emergency - Basic,363,Open,1946-01-01,Hospital,General Acute Care Hospital,34.10189600,-117.63748200
106361323,10697,COMMUNITY HOSPITAL OF SAN BERNARDINO,240000198,General Acute Care Hospital,1805 MEDICAL CENTER DRIVE,SAN BERNARDINO,92411,36,San Bernardino,Emergency - Basic,347,Open,1958-04-21,Hospital,General Acute Care Hospital,34.13131850,-117.32097140
106361339,10694,ST. BERNARDINE MEDICAL CENTER,240000206,General Acute Care Hospital,2101 NORTH WATERMAN AVENUE,SAN BERNARDINO,92404,36,San Bernardino,Emergency - Basic,342,Open,1946-01-01,Hospital,General Acute Care Hospital,34.13504970,-117.27725970
106361343,10695,PROVIDENCE ST. MARY MEDICAL CENTER,240000207,General Acute Care Hospital,18300 US HIGHWAY 18,APPLE VALLEY,92307,36,San Bernardino,Emergency - Basic,213,Open,1956-11-16,Hospital,General Acute Care Hospital,34.54160510,-117.26568270
106361370,10707,VICTOR VALLEY GLOBAL MEDICAL CENTER,240000218,General Acute Care Hospital,15248 ELEVENTH STREET,VICTORVILLE,92395,36,San Bernardino,Emergency - Basic,101,Open,1964-11-13,Hospital,General Acute Care Hospital,34.52753010,-117.29344380
106361458,10684,COLORADO RIVER MEDICAL CENTER,240000227,General Acute Care Hospital,1401 BAILEY AVENUE,NEEDLES,92363,36,San Bernardino,Emergency - Standby,25,Open,1952-08-11,Hospital,General Acute Care Hospital,34.83314840,-114.61753950
106361768,,DEPARTMENT OF STATE HOSPITALS - PATTON,170000831,Acute Psychiatric Hospital,3102 E. HIGHLAND AVENUE,PATTON,92369,36,San Bernardino,Not Applicable,"1,287",Open,1975-09-29,Hospital,Acute Psychiatric Hospital,34.13802760,-117.21451270
106362041,14100,HI-DESERT MEDICAL CENTER,240000231,General Acute Care Hospital,6601 WHITE FEATHER ROAD,JOSHUA TREE,92252,36,San Bernardino,Emergency - Basic,179,Open,1971-06-11,Hospital,General Acute Care Hospital,34.13177270,-116.27418960
106364014,15911,LOMA LINDA UNIVERSITY BEHAVIORAL MEDICINE CENTER,240000169,General Acute Care Hospital,1710 BARTON ROAD,REDLANDS,92373,36,San Bernardino,None,89,Open,2023-08-30,Hospital,General Acute Care Hospital,34.04935800,-117.21402580
106364050,16222,CANYON RIDGE HOSPITAL,240000357,Acute Psychiatric Hospital,5353 G STREET,CHINO,91710,36,San Bernardino,Not Applicable,157,Open,1990-01-11,Hospital,Acute Psychiatric Hospital,34.00900310,-117.68812540
106364121,16877,BALLARD REHABILITATION HOSPITAL,240000502,General Acute Care Hospital,1760 WEST 16TH STREET,SAN BERNARDINO,92411,36,San Bernardino,None,60,Open,1993-07-15,Hospital,General Acute Care Hospital,34.12935280,-117.32549790
106364144,12763,DESERT VALLEY HOSPITAL,240000562,General Acute Care Hospital,16850 BEAR VALLEY ROAD,VICTORVILLE,92395,36,San Bernardino,Emergency - Basic,148,Open,1994-08-31,Hospital,General Acute Care Hospital,34.47228570,-117.29801280
106364188,14102,KINDRED HOSPITAL RANCHO,240000652,General Acute Care Hospital,10841 WHITE OAK AVENUE,RANCHO CUCAMONGA,91730,36,San Bernardino,None,55,Open,2005-12-21,Hospital,General Acute Care Hospital,34.10387540,-117.56640720
106364231,17282,ARROWHEAD REGIONAL MEDICAL CENTER,240000197,General Acute Care Hospital,400 N. PEPPER AVENUE,COLTON,92324,36,San Bernardino,Emergency - Basic,456,Open,1999-03-30,Hospital,General Acute Care Hospital,34.07423400,-117.35028150
106364265,17905,KAISER FOUNDATION HOSPITAL - ONTARIO,240000159,General Acute Care Hospital,2295 S. VINEYARD AVENUE,ONTARIO,91761,36,San Bernardino,Emergency - Basic,214,Open,2011-10-26,Hospital,General Acute Care Hospital,34.03127960,-117.60783860
106364268,18161,LOMA LINDA UNIVERSITY SURGICAL HOSPITAL,240000169,General Acute Care Hospital,26780 BARTON ROAD,REDLANDS,92373,36,San Bernardino,None,28,Open,2009-01-02,Hospital,General Acute Care Hospital,34.04870010,-117.22046220
106364430,18197,BARSTOW COMMUNITY HOSPITAL,240000110,General Acute Care Hospital,820 EAST MOUNTAIN VIEW ST,BARSTOW,92311,36,San Bernardino,Emergency - Basic,30,Open,2012-10-13,Hospital,General Acute Care Hospital,34.89217130,-117.01669690
106364451,18201,TOTALLY KIDS REHABILITATION HOSPITAL,550002720,General Acute Care Hospital,1720 MOUNTAIN VIEW AVE,LOMA LINDA,92354,36,San Bernardino,None,81,Open,2014-06-20,Hospital,General Acute Care Hospital,34.07034120,-117.24492250
106364502,18220,LOMA LINDA UNIVERSITY CHILDREN'S HOSPITAL,550002873,General Acute Care Hospital,11234 ANDERSON ST.,LOMA LINDA,92354,36,San Bernardino,Emergency - Basic,364,Open,2014-11-16,Hospital,General Acute Care Hospital,34.04992100,-117.26283680
106370028,10028,KAISER FOUNDATION HOSPITAL - SAN MARCOS,550008664,General Acute Care Hospital,360 RUSH DRIVE,SAN MARCOS,92078,37,San Diego,Emergency - Basic,168,Open,2023-07-14,Hospital,General Acute Care Hospital,33.12981570,-117.17023280
106370033,,"CASA PALMERA CARE CENTER, LLC",550005096,Chemical Dep. Recovery Hospital,14750 EL CAMINO REAL,DEL MAR,92014,37,San Diego,Not Applicable,93,Open,2019-12-06,Hospital,Chemical Dep. Recovery Hospital,32.98379920,-117.22527410
106370652,12872,UC SAN DIEGO HEALTH - EAST CAMPUS MEDICAL CENTER,090000101,General Acute Care Hospital,6655 ALVARADO ROAD,SAN DIEGO,92120,37,San Diego,Emergency - Basic,302,Open,2024-02-01,Hospital,General Acute Care Hospital,32.77664150,-117.05731880
106370658,12268,SCRIPPS MERCY HOSPITAL - CHULA VISTA,090000074,General Acute Care Hospital,435 H STREET,CHULA VISTA,91910,37,San Diego,Emergency - Basic,173,Open,2004-10-01,Hospital,General Acute Care Hospital,32.63378590,-117.08317770
106370673,12285,RADY CHILDREN'S HOSPITAL SAN DIEGO,080000028,General Acute Care Hospital,3020 CHILDREN'S WAY,SAN DIEGO,92123,37,San Diego,Emergency - Basic,478,Open,1954-08-18,Hospital,General Acute Care Hospital,32.79775750,-117.15140700
106370689,12295,SHARP CORONADO HOSPITAL AND HEALTHCARE CENTER,090000036,General Acute Care Hospital,250 PROSPECT PLACE,CORONADO,92118,37,San Diego,Emergency - Basic,59,Open,1946-01-01,Hospital,General Acute Care Hospital,32.69444710,-117.16866100
106370694,12364,SHARP MEMORIAL HOSPITAL,080000039,General Acute Care Hospital,7901 FROST STREET,SAN DIEGO,92123,37,San Diego,Emergency - Basic,656,Open,1974-11-01,Hospital,General Acute Care Hospital,32.79952070,-117.15460270
106370695,15454,SHARP MARY BIRCH HOSPITAL FOR WOMEN AND NEWBORNS,080000039,General Acute Care Hospital,3003 HEALTH CENTER DRIVE,SAN DIEGO,92123,37,San Diego,None,206,Open,2009-11-01,Hospital,General Acute Care Hospital,32.79837290,-117.15505960
106370714,12322,GROSSMONT HOSPITAL,080000006,General Acute Care Hospital,5555 GROSSMONT CENTER DRIVE,LA MESA,91942,37,San Diego,Emergency - Basic,562,Open,1955-08-10,Hospital,General Acute Care Hospital,32.78074720,-117.00718400
106370721,12328,KINDRED HOSPITAL - SAN DIEGO,090000059,General Acute Care Hospital,1940 EL CAJON BOULEVARD,SAN DIEGO,92104,37,San Diego,None,70,Open,1946-01-01,Hospital,General Acute Care Hospital,32.75634990,-117.14426050
106370730,13111,KAISER FOUNDATION HOSPITAL - SAN DIEGO - ZION,080000062,General Acute Care Hospital,4647 ZION AVENUE,SAN DIEGO,92120,37,San Diego,Emergency - Basic,368,Open,1975-11-18,Hospital,General Acute Care Hospital,32.79161330,-117.09540490
106370744,12339,SCRIPPS MERCY HOSPITAL,090000074,General Acute Care Hospital,4077 FIFTH AVENUE,SAN DIEGO,92103,37,San Diego,Emergency - Basic,482,Open,1946-01-01,Hospital,General Acute Care Hospital,32.75114320,-117.16081290
106370745,12340,SHARP MESA VISTA HOSPITAL,550000273,Acute Psychiatric Hospital,7850 VISTA HILL AVENUE,SAN DIEGO,92123,37,San Diego,Not Applicable,160,Open,2006-09-08,Hospital,Acute Psychiatric Hospital,32.79577720,-117.15569360
106370749,12344,ALVARADO PARKWAY INSTITUTE B.H.S.,080000079,Acute Psychiatric Hospital,7050 PARKWAY DRIVE,LA MESA,91942,37,San Diego,Not Applicable,66,Open,1959-09-30,Hospital,Acute Psychiatric Hospital,32.77462920,-117.04413720
106370759,12348,PARADISE VALLEY HOSPITAL,090000086,General Acute Care Hospital,2400 EAST FOURTH STREET,NATIONAL CITY,91950,37,San Diego,Emergency - Basic,226,Open,1966-03-29,Hospital,General Acute Care Hospital,32.68536670,-117.08207440
106370771,12363,SCRIPPS MEMORIAL HOSPITAL - LA JOLLA,080000050,General Acute Care Hospital,9888 GENESEE AVENUE,LA JOLLA,92037,37,San Diego,Emergency - Basic,577,Open,1964-05-03,Hospital,General Acute Care Hospital,32.88515440,-117.22553830
106370775,12741,PARADISE VALLEY HSP D/P APH BAYVIEW BEH HLTH,090000086,General Acute Care Hospital,330 MOSS STREET,CHULA VISTA,91911,37,San Diego,None,64,Open,1977-11-30,Hospital,General Acute Care Hospital,32.61752040,-117.07136350
106370780,12372,TRI-CITY MEDICAL CENTER,080000099,General Acute Care Hospital,4002 VISTA WAY,OCEANSIDE,92056,37,San Diego,Emergency - Basic,386,Open,1961-07-11,Hospital,General Acute Care Hospital,33.18564840,-117.29043590
106370782,12359,UC SAN DIEGO HEALTH HILLCREST - HILLCREST MEDICAL CENTER,090000101,General Acute Care Hospital,200 WEST ARBOR DRIVE,SAN DIEGO,92103,37,San Diego,Emergency - Comprehensive,381,Open,1953-07-01,Hospital,General Acute Care Hospital,32.75426980,-117.16613500
106370875,13336,SHARP CHULA VISTA MEDICAL CENTER,090000008,General Acute Care Hospital,751 MEDICAL CENTER COURT,CHULA VISTA,91911,37,San Diego,Emergency - Basic,449,Open,1975-05-27,Hospital,General Acute Care Hospital,32.61964990,-117.02326360
106370977,14190,PALOMAR MEDICAL CENTER POWAY,080000127,General Acute Care Hospital,15615 POMERADO ROAD,POWAY,92064,37,San Diego,Emergency - Basic,236,Open,1977-06-22,Hospital,General Acute Care Hospital,32.99767350,-117.05540520
106371256,14181,SCRIPPS GREEN HOSPITAL,080000139,General Acute Care Hospital,10666 NORTH TORREY PINES ROAD,LA JOLLA,92037,37,San Diego,None,173,Open,1977-02-06,Hospital,General Acute Care Hospital,32.89707050,-117.24280960
106371394,12309,SCRIPPS MEMORIAL HOSPITAL - ENCINITAS,080000148,General Acute Care Hospital,354 SANTA FE DRIVE,ENCINITAS,92024,37,San Diego,Emergency - Basic,179,Open,1964-06-16,Hospital,General Acute Care Hospital,33.03751510,-117.28423640
106374024,15946,AURORA SAN DIEGO,080000310,Acute Psychiatric Hospital,11878 AVENUE OF INDUSTRY,SAN DIEGO,92128,37,San Diego,Not Applicable,101,Open,1988-05-19,Hospital,Acute Psychiatric Hospital,32.99132510,-117.07494920
106374049,,SHARP MCDONALD CENTER,080000319,Chemical Dep. Recovery Hospital,7989 LINDA VISTA ROAD,SAN DIEGO,92111,37,San Diego,Not Applicable,16,Open,1989-07-20,Hospital,Chemical Dep. Recovery Hospital,32.80605810,-117.15449820
106374055,16186,SAN DIEGO COUNTY PSYCHIATRIC HOSPITAL,090000092,Acute Psychiatric Hospital,3853 ROSECRANS STREET,SAN DIEGO,92110,37,San Diego,Not Applicable,109,Open,1989-07-25,Hospital,Acute Psychiatric Hospital,32.75373980,-117.20180660
106374094,16703,SELECT SPECIALTY HOSPITAL - SAN DIEGO,090000404,General Acute Care Hospital,555 WASHINGTON STREET,SAN DIEGO,92103,37,San Diego,None,110,Open,1992-04-14,Hospital,General Acute Care Hospital,32.74974610,-117.15979370
106374141,11659,UCSD HEALTH LA JOLLA - JACOBS MEDICAL CENTER & SULPIZIO CARDIOVASCULAR CENTER,090000101,General Acute Care Hospital,9300 CAMPUS POINT DRIVE,LA JOLLA,92037,37,San Diego,Emergency - Basic,418,Open,1993-07-20,Hospital,General Acute Care Hospital,32.87850550,-117.22572510
106374382,18173,PALOMAR MEDICAL CENTER,080000083,General Acute Care Hospital,2185 W. CITRACADO PARKWAY,ESCONDIDO,92029,37,San Diego,Emergency - Basic,316,Open,2012-08-15,Hospital,General Acute Care Hospital,33.09785090,-117.11092070
106374465,18199,KAISER FOUNDATION HOSPITAL - SAN DIEGO - CLAIREMONT MESA,080000062,General Acute Care Hospital,9455 CLAIREMONT MESA BLVD,SAN DIEGO,92123,37,San Diego,Emergency - Basic,253,Open,2017-03-30,Hospital,General Acute Care Hospital,32.82971160,-117.12518840
106374572,18230,PALOMAR REHABILITATION INSTITUTE,550006213,General Acute Care Hospital,2181 CITRACADO PKWY,ESCONDIDO,92029,37,San Diego,None,52,Open,2021-04-29,Hospital,General Acute Care Hospital,33.11969140,-117.12125890
106380046,12433,LANGLEY PORTER PSYCHIATRIC INSTITUTE,220000377,Acute Psychiatric Hospital,1600 DIVISADERO STREET FLOOR 7,SAN FRANCISCO,94143,38,San Francisco,Not Applicable,30,Open,2023-08-19,Hospital,Acute Psychiatric Hospital,37.78469890,-122.43920390
106380842,12426,JEWISH HOME & REHAB CENTER,220000224,Acute Psychiatric Hospital,302 SILVER AVENUE,SAN FRANCISCO,94112,38,San Francisco,Not Applicable,375,Open,1987-05-01,Hospital,Acute Psychiatric Hospital,37.72771380,-122.43084350
106380857,12430,KAISER FOUNDATION HOSPITAL - SAN FRANCISCO,220000188,General Acute Care Hospital,2425 GEARY BOULEVARD,SAN FRANCISCO,94115,38,San Francisco,Emergency - Basic,239,Open,1954-02-16,Hospital,General Acute Care Hospital,37.78264710,-122.44323780
106380865,12432,LAGUNA HONDA HOSPITAL AND REHABILITATION CENTER,220000040,General Acute Care Hospital,375 LAGUNA HONDA BOULEVARD,SAN FRANCISCO,94116,38,San Francisco,None,780,Open,1953-07-01,Hospital,General Acute Care Hospital,37.74911640,-122.45733920
106380895,12443,UCSF MEDICAL CENTER AT MOUNT ZION,220000091,General Acute Care Hospital,1600 DIVISADERO STREET,SAN FRANCISCO,94115,38,San Francisco,None,130,Open,2001-04-01,Hospital,General Acute Care Hospital,37.78469500,-122.43922740
106380933,12416,CALIFORNIA PACIFIC MEDICAL CENTER - DAVIES CAMPUS HOSPITAL,220000197,General Acute Care Hospital,601 DUBOCE AVENUE,SAN FRANCISCO,94117,38,San Francisco,Emergency - Basic,197,Open,1946-01-01,Hospital,General Acute Care Hospital,37.76822200,-122.43459260
106380939,12463,PRISCILLA CHAN & MARK ZUCKERBERG SAN FRANCISCO GENERAL HOSPITAL & TRAUMA CENTER,220000063,General Acute Care Hospital,1001 POTRERO AVENUE,SAN FRANCISCO,94110,38,San Francisco,Emergency - Comprehensive,397,Open,1953-07-01,Hospital,General Acute Care Hospital,37.75559190,-122.40562900
106380960,12457,UCSF HEALTH SAINT FRANCIS HOSPITAL,220000069,General Acute Care Hospital,900 HYDE STREET,SAN FRANCISCO,94109,38,San Francisco,Emergency - Basic,277,Open,1946-01-01,Hospital,General Acute Care Hospital,37.78937990,-122.41672940
106380965,12460,UCSF HEALTH - ST. MARY'S HOSPITAL,220000071,General Acute Care Hospital,450 STANYAN STREET,SAN FRANCISCO,94117,38,San Francisco,Emergency - Basic,267,Open,1946-01-01,Hospital,General Acute Care Hospital,37.77407490,-122.45388930
106381154,12476,UCSF MEDICAL CENTER,220000091,General Acute Care Hospital,505 PARNASSUS AVENUE,SAN FRANCISCO,94143,38,San Francisco,Emergency - Basic,559,Open,1917-01-01,Hospital,General Acute Care Hospital,37.76347720,-122.45734790
106382715,14621,CHINESE HOSPITAL,220000122,General Acute Care Hospital,845 JACKSON STREET,SAN FRANCISCO,94133,38,San Francisco,Emergency - Basic,88,Open,1946-01-01,Hospital,General Acute Care Hospital,37.79554060,-122.40912990
106384176,18165,CALIFORNIA PACIFIC MEDICAL CENTER - VAN NESS CAMPUS,220000197,General Acute Care Hospital,1101 VAN NESS AVENUE,SAN FRANCISCO,94109,38,San Francisco,Emergency - Basic,292,Open,2019-03-02,Hospital,General Acute Care Hospital,37.78604060,-122.42274670
106384200,18181,UCSF MEDICAL CENTER AT MISSION BAY,220000091,General Acute Care Hospital,1975 4TH STREET,SAN FRANCISCO,94158,38,San Francisco,Emergency - Basic,289,Open,2014-12-17,Hospital,General Acute Care Hospital,37.76553120,-122.38991300
106384202,18188,CALIFORNIA PACIFIC MEDICAL CENTER - MISSION BERNAL CAMPUS,220000070,General Acute Care Hospital,3555 CESAR CHAVEZ STREET,SAN FRANCISCO,94110,38,San Francisco,Emergency - Basic,98,Open,2018-08-17,Hospital,General Acute Care Hospital,37.74781410,-122.42152000
106384238,18227,KENTFIELD HOSPITAL SAN FRANCISCO,110000358,General Acute Care Hospital,450 STANYAN ST.,SAN FRANCISCO,94117,38,San Francisco,None,60,Open,2016-07-13,Hospital,General Acute Care Hospital,37.77407490,-122.45388930
106390846,10729,DAMERON HOSPITAL,030000024,General Acute Care Hospital,525 WEST ACACIA ST,STOCKTON,95203,39,San Joaquin,Emergency - Basic,202,Open,1946-01-01,Hospital,General Acute Care Hospital,37.96186130,-121.30077430
106390923,10743,ADVENTIST HEALTH LODI MEMORIAL,030000056,General Acute Care Hospital,975 SOUTH FAIRMONT AVENUE,LODI,95240,39,San Joaquin,Emergency - Basic,194,Open,1952-04-02,Hospital,General Acute Care Hospital,38.12146790,-121.28690980
106391010,10753,SAN JOAQUIN GENERAL HOSPITAL,030000087,General Acute Care Hospital,500 WEST HOSPITAL ROAD,FRENCH CAMP,95231,39,San Joaquin,Emergency - Basic,152,Open,1953-07-01,Hospital,General Acute Care Hospital,37.88619110,-121.28347970
106391042,10750,ST. JOSEPH'S MEDICAL CENTER OF STOCKTON,030000284,General Acute Care Hospital,1800 NORTH CALIFORNIA STREET,STOCKTON,95204,39,San Joaquin,Emergency - Basic,355,Open,1946-03-28,Hospital,General Acute Care Hospital,37.96988310,-121.28866690
106391056,10757,SUTTER TRACY COMMUNITY HOSPITAL,030000105,General Acute Care Hospital,1420 NORTH TRACY BOULEVARD,TRACY,95376,39,San Joaquin,Emergency - Basic,77,Open,1948-07-01,Hospital,General Acute Care Hospital,37.74409490,-121.43387230
106392232,10747,ST. JOSEPH'S BEHAVIORAL HEALTH CENTER,030000367,Acute Psychiatric Hospital,2510 NORTH CALIFORNIA STREET,STOCKTON,95204,39,San Joaquin,Not Applicable,35,Open,1957-06-28,Hospital,Acute Psychiatric Hospital,37.97667120,-121.29111220
106392287,10745,DOCTORS HOSPITAL OF MANTECA,030000203,General Acute Care Hospital,1205 EAST NORTH STREET,MANTECA,95336,39,San Joaquin,Emergency - Basic,73,Open,1962-02-26,Hospital,General Acute Care Hospital,37.80146300,-121.19691690
106394003,,SAN JOAQUIN PHF,M01016012,Psychiatric Health Facility,1212 NORTH CALIFORNIA ST.,STOCKTON,95202,39,San Joaquin,Not Applicable,16,Open,1988-01-29,Hospital,Psychiatric Health Facility,37.96692230,-121.28753950
106394009,16324,KAISER FOUNDATION HOSPITAL - MANTECA,030000393,General Acute Care Hospital,1777 WEST YOSEMITE AVENUE,MANTECA,95337,39,San Joaquin,Emergency - Basic,99,Open,1990-09-01,Hospital,General Acute Care Hospital,37.79825580,-121.24627230
106394128,18232,STOCKTON REGIONAL REHABILITATION HOSPITAL,550008586,General Acute Care Hospital,607 E. MAGNOLIA STREET,STOCKTON,95202,39,San Joaquin,None,50,Open,2023-06-21,Hospital,General Acute Care Hospital,37.96578620,-121.28594940
106400466,10766,"MARIAN REGIONAL MEDICAL CENTER, ARROYO GRANDE",050000040,General Acute Care Hospital,345 SOUTH HALCYON ROAD,ARROYO GRANDE,93420,40,San Luis Obispo,Emergency - Basic,67,Open,2013-01-10,Hospital,General Acute Care Hospital,35.11363760,-120.59077220
106400480,12964,FRENCH HOSPITAL MEDICAL CENTER,050000031,General Acute Care Hospital,1911 JOHNSON AVENUE,SAN LUIS OBISPO,93401,40,San Luis Obispo,Emergency - Basic,98,Open,1972-09-26,Hospital,General Acute Care Hospital,35.27796590,-120.65126710
106400524,10778,ADVENTIST HEALTH SIERRA VISTA,050000059,General Acute Care Hospital,1010 MURRAY AVE,SAN LUIS OBISPO,93405,40,San Luis Obispo,Emergency - Basic,162,Open,1959-12-07,Hospital,General Acute Care Hospital,35.29216840,-120.66585860
106400548,13999,ADVENTIST HEALTH TWIN CITIES,050000078,General Acute Care Hospital,1100 LAS TABLAS ROAD,TEMPLETON,93465,40,San Luis Obispo,Emergency - Basic,122,Open,1977-02-07,Hospital,General Acute Care Hospital,35.55604030,-120.71904460
106400683,,DEPARTMENT OF STATE HOSPITALS - ATASCADERO,150000498,Acute Psychiatric Hospital,10333 EL CAMINO REAL,ATASCADERO,93422,40,San Luis Obispo,Not Applicable,"1,275",Open,1954-06-16,Hospital,Acute Psychiatric Hospital,35.46325980,-120.63445650
106404046,,SAN LUIS OBISPO CO PSYCHIATRIC HEALTH FACILITY,M02016035,Psychiatric Health Facility,2178 JOHNSON AVE,SAN LUIS OBISPO,93401,40,San Luis Obispo,Not Applicable,16,Open,2003-04-08,Hospital,Psychiatric Health Facility,35.27583400,-120.64698180
106410782,10810,SAN MATEO MEDICAL CENTER,220000015,General Acute Care Hospital,222 WEST 39TH AVENUE,SAN MATEO,94403,41,San Mateo,Emergency - Basic,167,Open,1953-07-01,Hospital,General Acute Care Hospital,37.53074660,-122.29911440
